sponsorcode,sponsorname,locationcode,locationname,address1,address2,city,provinceshort,province,postalcode,lat,long
LAWT,LAWTONS,122,AMHERST,101-16 LAWRENCE ST,?,AMHERST,NS,Nova Scotia,B4H3G5,45.83277,-64.21357
NSLC,NOVA SCOTIA LIQUOR,2348,PICTOU,31 WEAVER ROAD,UNIT 3,PICTOU,NS,Nova Scotia,B0K1H0,45.67992,-62.72692
LCBO,LCBO,136,Minden,SOUTH WATER STREET,?,MINDEN,ON,Ontario,K0M2K0,44.930214,-78.720414
SHEL,SHELL CANADA,2018,St Jacques De Leeds,?,?,?,QC,Quebec,?,46.291909,-71.335202
UNIS,AUTO PLUS AUTO PART PLUS,8022,PARRY SOUND AUTOPART,74 PARRY SOUND DR,?,PARRY SOUND,ON,Ontario,P2A0B8,45.36891,-80.04538
GMCL,GENERAL MOTORS,F056,ELLIS CH B G,"HIGHWAY 303, CONWAY",P.O. BOX 1299,DIGBY,NS,Nova Scotia,B0V1A0,44.60305,-65.770224
GMCL,GENERAL MOTORS,C246,POWELL MOTORS,804 MAIN ST. E. & 7TH AVENUE,P.O. BOX 910,SWAN RIVER,MB,Manitoba,R0L1Z0,52.10606,-101.26587
GMCL,GENERAL MOTORS,G575,C GIGNAC AUTOMOBILES,"1070, BOUL. DUCHARME",?,LA TUQUE,QC,Quebec,G9X3C4,47.421003,-72.785028
DEMF,DAOUST & MICHEL FORGET,D090,ST-SAUVEUR D-90,224-D CH. DU LAC MILLETTE,?,ST-SAUVEUR-DES-MONTS,QC,Quebec,J0R1R3,45.89144,-74.1525
RN15,RO-NA HARDWARE,620,RONA 92 2ND STREET,92 2ND STREET,?,LAC DU BONNET,MB,Manitoba,R0E1A0,50.25723,-96.06098
LCBO,LCBO,28,Dunnville,222 BROAD STREET EAST,?,DUNNVILLE,ON,Ontario,N1A1G2,42.903413,-79.615087
2,BMO BANK OF MONTREAL,646,BMO BANK OF MONTREAL,9910 100TH AVE,?,HIGH LEVEL,AB,Alberta,T0H1Z0,58.518327,-117.131062
SBYA,SOBEYS INC,552,CLARENVILLE,69 MANITOBA DR,SUITE 101,CLARENVILLE,NL,Newfoundland & Labrador,A5A1K3,48.16323,-53.98129
SHEL,SHELL CANADA,1F86,Whitney ON,HWY 60,?,WHITNEY,ON,Ontario,K0J2M0,45.493406,-78.238752
19,FOUNTAIN TIRE,78,FOUNTAIN TIRE F078,202 - 1 ST NORTH,?,VULCAN,AB,Alberta,T0L2B0,50.40454,-113.26326
NSLL,NOVA SCOTIA LIQUOR,2590,WEST PUBNICO,16 ABBOTT HARBOUR ROAD,?,WEST PUBNICO,NS,Nova Scotia,B0W3S0,43.66138,-65.80059
2,BMO BANK OF MONTREAL,671,BMO BANK OF MONTREAL,422 10TH ST,?,WAINWRIGHT,AB,Alberta,T9W1P5,52.836057,-110.858449
2,BMO BANK OF MONTREAL,567,BMO BANK OF MONTREAL,61 FRONT ST,?,SIOUX LOOKOUT,ON,Ontario,P8T1B1,50.098087,-91.916484
PJCQ,JEAN COUTU,179,RAWDON,"3285, 1E AVENUE",?,RAWDON,QC,Quebec,J0K1S0,46.038722,-73.697963
NSLC,NOVA SCOTIA LIQUOR,2511,BERWICK,200 COMMERCIAL STREET,?,BERWICK,NS,Nova Scotia,B0P1E0,45.04375,-64.73542
SHEL,SHELL CANADA,1G63,St Flavien QC,?,?,?,QC,Quebec,?,46.527175,-71.615345
2,BMO BANK OF MONTREAL,509,BMO BANK OF MONTREAL,207 BROAD ST E,?,DUNNVILLE,ON,Ontario,N1A1G1,42.903683,-79.616778
PPDM,PHARMA PLUS DRUGMARTS,2220,SMITHS FALL DTWN,2 BECKWITH STREET NORTH,?,SMITHS FALLS,ON,Ontario,K7A2B1,44.89968,-76.02129
PJCQ,JEAN COUTU,128,TRACADIE-SHEILA,3500 RUE PRINCIPALE,?,TRACADIE SHEILA,NB,New Brunswick,E1X1G6,47.516882,-64.911754
RN04,BOTANIX,564,Temiscouata Inc,"236, ROUTE TRANSCANADIENNE",?,NOTRE-DAME-DU-LAC,QC,Quebec,G0L1X0,47.62641,-68.82593
LCBO,LCBO,577,Moonbeam,33A GOVERNMENT ROAD,?,MOONBEAM,ON,Ontario,P0L1V0,49.342885,-82.157261
HIEX,HOLIDAY INN EXPRESS,ETEX,EDSON,4520 2ND AVENUE,?,EDSON,AB,Alberta,T7E1C3,53.58438,-116.42016
SBYA,SOBEYS INC,660,Elmsdale,HIGHWAY 102 & 214,ELMSDALE SHOPPING CTR,ELMSDALE,NS,Nova Scotia,B0N1M0,44.97596,-63.50739
SHEL,SHELL CANADA,1DD1,485 Boulevard St,485 BOULEVARD ST PIERRE OUEST,?,CARAQUET,NB,New Brunswick,E1W1A3,47.774258,-64.996684
RN02,RONA LE RENOVATEUR,737,"Boul.Marcotte,Rober","255, BOUL. MARCOTTE",?,ROBERVAL,QC,Quebec,G8H1Z3,48.50059,-72.22242
SHEL,SHELL CANADA,A60B,219 BLVD ST-BENOIT,?,?,?,QC,Quebec,?,48.453565,-67.413056
CRST,CARSTAR AUTOMOTIVE CANADA,164,CARSTAR PERTH,16695 HWY 7,?,PERTH,ON,Ontario,K7H3C8,44.929507,-76.244909
PHAR,PHARMASAVE,527,CLARE PHARMASAVE,8693 MAIN ST,?,METEGHAN,NS,Nova Scotia,B0W2K0,44.20285,-66.14212
IRIS,IRIS,319,Iris,LE VILLAGE 2 CH. DE L'EQUERRE,?,BAIE ST-PAUL,QC,Quebec,G3Z2Y5,47.44904,-70.5208
DEMF,DAOUST & MICHEL FORGET,F154,367 Papineau  Papine,367 PAPINEAU,?,PAPINEAUVILLE,QC,Quebec,J0V1R0,45.6172,-75.01698
MMER,MONERIS MERCHANT ISSUANCE,1296,APOLLO RISTORANTE,1012 CRANBROOK ST N,?,CRANBROOK,BC,British Columbia,V1C3S3,49.521734,-115.75646
16,GOODYEAR CANADA - CENTRAL,2242,GY AUTO SERVICE #127,4 MOIRA STREET WEST,?,BELLEVILLE,ON,Ontario,K9P1R9,44.1696,-77.38708
MMER,MONERIS MERCHANT ISSUANCE,0TTS,RESTAURANT MISS JEAN,901 JEAN-TALON RUE O,?,MONTREAL,QC,Quebec,H3N1S7,45.525529,-73.62512
17,GOODYEAR CANADA - EAST,1083,LES PNEUS P.R.,1068 RUE SAINT-CALIXTE,?,PLESSISVILLE,QC,Quebec,G6L1N8,46.213177,-71.781315
RN07,ACE,7002,ACE - DRUMMOND,1423 CH TOBIQUE,?,DRUMMOND,NB,New Brunswick,E3Y2P6,47.035599,-67.682748
6048,BMO BONUS MILES,?,?,?,?,?,?,Unknown,?,999,999
LOWE,LOWES CANADA,3059,CALGARY - SUNRIDGE,2909 SUNRIDGE WAY NE,?,CALGARY,AB,Alberta,T1Y7K7,51.069498,-113.997056
SPLS,STAPLES,153,CAVENDISH,5800 BOULEVARD CAVENDISH,?,COTE-SAINT-LUC,QC,Quebec,H4W2T5,45.47679,-73.6637
KD46,AABEN WINDOWS AND DOORS,?,?,?,?,?,?,Unknown,?,999,999
IGAQ,IGA SUPERMARKETS,8288,IGA EXTRA LORETTEVIL,561 RUE RACINE,?,QUEBEC,QC,Quebec,G2B1G3,46.845287,-71.36696
TIMQ,TIMBER MART QUEBEC,8211,QUINC NEUVILLE,"206, DE L'EGLISE",?,NEUVILLE,QC,Quebec,G0A2R0,46.697199,-71.584013
HOME,HOMECARE BUILDING CENTRES,175,Arruda Homecare Ctr,17 BARTON STREET EAST,?,HAMILTON,ON,Ontario,L8L2V6,43.26402,-79.86525
TIMW,TIM-BR MART WEST,1830,SOUTHSIDE BUILDERS,33692 HWY 97 SOUTH,?,OLIVER,BC,British Columbia,V0H1T0,49.16672,-119.56152
TIMW,TIM-BR MART WEST,1540,NAL-MELVILLE - TBM,182 3RD WEST,?,MELVILLE,SK,Saskatchewan,S0A2P0,50.929253,-102.808043
TIMA,TIM-BR MART EAST,8081,PRITCHETT'S-GAMBO,359 J.R. SMALLWOOD BLVD.,?,GAMBO,NL,Newfoundland & Labrador,A0G1T0,48.78813,-54.21028
KD38,TRAIL FURNITURE OUTLET,?,?,?,?,?,?,Unknown,?,999,999
BUDG,BUDGET RENT A CAR,0WPZ,T VICPARK OW,1474 VICTORIA PARK AVE,?,NORTH YORK,ON,Ontario,M4A2M1,43.722881,-79.302028
HFGI,HILTON GARDEN INN,FDYE,FINDLAY,?,?,?,YT,Yukon,?,999,999
SBYW,SOBEYS WEST,5093,SOBEYS PRESTON,1739 PRESTON AVE N,?,SASKATOON,SK,Saskatchewan,S7N4V2,52.147888,-106.614997
33,CENTURY 21,3107,A.B.C. REALTY LTD.,146-250 BAKER DR,?,DARTMOUTH,NS,Nova Scotia,B2W6L4,44.65695,-63.5289
MMER,MONERIS MERCHANT ISSUANCE,110X,AVA SPECIALTY FASTEN,315 STEELCASE RD E,UNIT 10,MARKHAM,ON,Ontario,L3R2R5,43.8214702,-79.3411681
MMER,MONERIS MERCHANT ISSUANCE,1071,BBS BOOKKEEPING,1090 COLLEGE ST,?,TORONTO,ON,Ontario,M6H1B3,43.652701,-79.432022
MMER,MONERIS MERCHANT ISSUANCE,101Y,KEEBO SPORTS SUPPLEM,1504 ST MARY'S RD UNIT 5,?,WINNIPEG,MB,Manitoba,R2M3V7,49.825996,-97.114617
MMER,MONERIS MERCHANT ISSUANCE,0ZTQ,SEAN'S TOWING,49695 CAMPBELL ROAD,?,CHILLIWACK,BC,British Columbia,V2P6H4,49.166399,-121.849369
MMER,MONERIS MERCHANT ISSUANCE,0ZKL,SALON LUMINENCE,1694 CEDAR ROAD,?,NANAIMO,BC,British Columbia,V9X1W1,49.111846,-123.86875
MMER,MONERIS MERCHANT ISSUANCE,0ZJ6,THE SWEET NORTH BAKE,10 COURT ST S,?,THUNDER BAY,ON,Ontario,P7B2W3,48.435365,-89.222429
KD27,MOUNTAIN VIEW DODGE,4,MOUNTAINVIEW DODGE,?,?,?,AB,Alberta,?,999,999
IOBG,IRVING,C859,FLORENCEVILLE,305 RT 110,?,FLORENCEVILLE,NB,New Brunswick,E7L3P8,46.441389,-67.649405
SWPH,SOBEYS WEST PHARMACIES,5088,SOBEYS UNICITY,3635 PORTAGE AVE,?,WINNIPEG,MB,Manitoba,R3K2G6,49.882372,-97.311558
CV01,CLUB VOYAGES,111,CLUB VOYAGES INTER,1398 CHEMIN STE-FOY,?,QUEBEC,QC,Quebec,G1S2N6,46.79412,-71.25588
FLDO,FOODLAND ONTARIO,6766,SMITHVILLE,?,?,?,ON,Ontario,?,43.099087,-79.546507
CV01,CLUB VOYAGES,520,CV MALAVOY,3425 RUE BEAUBIEN E,?,MONTREAL,QC,Quebec,H1X1G8,45.55652,-73.585063
KD27,MOUNTAIN VIEW DODGE,?,?,?,?,?,?,Unknown,?,999,999
KD15,ECOLE DE CONDUITE OMEGA,1,OMEGA PARC,?,?,?,QC,Quebec,?,999,999
PALS,PREFERRED AB LIQUOR STORE,1037,CROWFOOT - BOWNESS,400-8435 BOWFORT RD NW,?,CALGARY,AB,Alberta,T3B2V2,51.0849,-114.20997
KD16,SAINT COSMETICS,?,?,?,?,?,?,Unknown,?,999,999
KD09,GREEN DIAMOND EQUIPMENT,12,GREEN DIAMOND EQUIP,?,?,?,NS,Nova Scotia,?,999,999
JSLB,JUST LUBES,3498,120 ANNE ST S,120 ANNE ST S,?,BARRIE,ON,Ontario,L4N6A2,44.374691,-79.698431
KD08,ROYAL ENVIRONMENTAL INC,2,FERO,?,?,?,NB,New Brunswick,?,999,999
33,CENTURY 21,3401,ISLAND REALTY INC.,17A HARDY AVE,?,GRAND FALLS-WINDSOR,NL,Newfoundland & Labrador,A2A2P8,48.952064,-55.646129
SBYO,SOBEYS ONTARIO,4726,LAIRD & WICKSTEED SO,147 LAIRD DR,?,EAST YORK,ON,Ontario,M4G4K1,43.709307,-79.359453
PP73,PIZZA 73,13,2803-17 AVENUE SW,2803 17 AVE SW,?,CALGARY,AB,Alberta,T3E0A8,51.03771,-114.12704
PP73,PIZZA 73,66,#103-6815 KATERI DR,103-6815 KATERI DR,?,GRANDE PRAIRIE,AB,Alberta,T8W0H1,55.14238,-118.80228
PP73,PIZZA 73,1058,"1152-137 AVE, SE",PHONE AND ONLINE ORDERS,?,CALGARY,AB,Alberta,T2J6T6,50.92793,-114.02812
SWPH,SOBEYS WEST PHARMACIES,5095,SOBEYS SOUTHBROOK,1109 JAMES MOWATT TRAIL SW,?,EDMONTON,AB,Alberta,T6W1S4,53.4226271,-113.5147326
HFHH,HILTON,MUCT,MUNICH AIRPORT,?,?,?,NU,Nunavut,?,999,999
HFHH,HILTON,NKGN,NANJING RIVERSIDE,?,?,?,NU,Nunavut,?,999,999
SHEL,SHELL CANADA,DD6G,C80152,215 BOUL RIDEAU,?,ROUYN-NORANDA,QC,Quebec,J9X5Y6,48.243911,-79.041227
FOOD,FOODLAND,9355,FOODLAND BLOOMFIELD,2238 O'HALLARAN RD,?,BLOOMFIELD,PE,Prince Edward Island,C0B1E0,46.762392,-64.183365
JR85,CANADIAN LINEN UNIFORM,13,CANADIAN LINEN,?,?,?,BC,British Columbia,?,999,999
TIMW,TIM-BR MART WEST,5117,BURNCO-OKOTOKS,NEAR HWY 2A & HWY 7,?,OKOTOKS,AB,Alberta,T0L1T0,50.708566,-113.943011
GLOB,GLOBAL PET FOODS,616,MONTREAL,4528 BOUL SAINT-LAURENT,?,MONTREAL,QC,Quebec,H2T1R3,45.520466,-73.587168
SBYO,SOBEYS ONTARIO,865,MAYFIELD,"11965 HURONTARIO ST., BRAMPTON",?,MAYFIELD,ON,Ontario,L6Z4P7,43.7338779,-79.8240086
FLDO,FOODLAND ONTARIO,7256,WILBERFORCE,"2763 ESSONVILLE LINE, WILBERFORCE",?,WILBERFORCE,ON,Ontario,K0L3C0,45.03586,-78.225898
FLDO,FOODLAND ONTARIO,7099,PORT ROWAN,"1031 BAY STREET, BOX 399, PORT ROWAN",?,PORT ROWAN,ON,Ontario,N0E1M0,42.624281,-80.450737
FLDO,FOODLAND ONTARIO,6421,RIDGETOWN,"32 MAIN STREET EAST, P.O. BOX 897, RIDGETOWN",?,RIDGETOWN,ON,Ontario,N0P2C0,42.439872,-81.886191
FLDO,FOODLAND ONTARIO,6340,WATERFORD,PO BOX 24,?,WATERFORD,ON,Ontario,N0E1Y0,42.922091,-80.287626
SBYO,SOBEYS ONTARIO,4717,PARRY SOUND,25 PINE DR,?,PARRY SOUND,ON,Ontario,P2A3B7,45.344168,-80.009996
PHAR,PHARMASAVE,564,SOUTHSIDE PHARMASAVE,640 PROSPECT STREET WEST,?,FREDERICTON,NB,New Brunswick,E3B6G9,45.94924,-66.68581
LUBX,LUBEXX,1059,2929 SUNRIDGE WAY,2929 SUNRIDGE WAY,?,CALGARY,AB,Alberta,T1Y7K7,51.069273,-113.994595
RN07,ACE,8002,ACE - THORNDALE,181 KING ST,?,THORNDALE,ON,Ontario,N0M2P0,43.103094,-81.148003
LUBX,LUBEXX,1067,60 TRUNK ROAD,60 TRUNK ROAD,?,DUNCAN,BC,British Columbia,V9L5B7,48.7766616,-123.6969513
WRPL,WHIRLPOOL CANADA,210,THORSNESS HARDWARE,206 COMMERCIAL ST,?,SALTCOATS,SK,Saskatchewan,S0A3R0,51.03664,-102.16363
THPH,THRIFTY FOODS PHARMACY,9450,FAIRFIELD,?,?,?,BC,British Columbia,?,999,999
IOXG,IRVING,2683,SEAL ISLAND SVC CTR,"825, HWY 105",?,BOULARDERIE EAST,NS,Nova Scotia,B1X1S6,46.235621,-60.475715
IOMG,IRVING,C410,CUMMINGS CONVENIENCE,91 HARRIET ST,?,ST ANDREWS,NB,New Brunswick,E5B1S2,45.078861,-67.059189
IOMC,IRVING C-STORE,3381,ST ANTHONY IRVING,48 WEST STREET,?,ST ANTHONY,NL,Newfoundland & Labrador,A0K4S0,51.370014,-55.598185
IOCG,IRVING COUCHE-TARD,2050,BRIDGEWATER NS CK,463 NORTH ST,?,BRIDGEWATER,NS,Nova Scotia,B4V2W6,44.39154,-64.52728
IOCG,IRVING COUCHE-TARD,2016,SALISBURY CIRCLE K,"2986 FREDERICTON RD, HWY 2, EXIT 433",?,SALISBURY,NB,New Brunswick,E4J2G1,46.05086,-65.060711
IOCC,IRVING COUCHE-TARD CSTORE,2077,NORTH SYDNEY CK,183 COMMERCIAL ST,?,NORTH SYDNEY,NS,Nova Scotia,B2A1B5,46.2066,-60.252171
IOCG,IRVING COUCHE-TARD,2018,LAKEBURN CIRCLE K,1528 CHAMPLAIN ST,?,DIEPPE,NB,New Brunswick,E1A1R5,46.103041,-64.682608
IOCC,IRVING COUCHE-TARD CSTORE,2003,BOUCTOUCHE CIRCLE K,131 IRVING BLVD,?,BOUCTOUCHE,NB,New Brunswick,E4S3K2,46.468104,-64.727526
IOCC,IRVING COUCHE-TARD CSTORE,2108,TORBAY RD CIRCLE K,184 TORBAY RD,?,ST. JOHN'S,NL,Newfoundland & Labrador,A1A2H3,47.595127,-52.709629
IOBC,IRVING BULLOCH,1763,PENNFIELD IRVING,5030 ROUTE 1,?,PENNFIELD,NB,New Brunswick,E5H1Y5,45.113254,-66.731603
IOMC,IRVING C-STORE,4815,FORTUNE AUTO SERVICE,59 BAYVIEW STREET,?,FORTUNE,NL,Newfoundland & Labrador,A0E1P0,47.074747,-55.823638
IOCG,IRVING COUCHE-TARD,2128,WHITBOURNE CIRCLE K,679 WHITBOURNE RD,?,WHITBOURNE,NL,Newfoundland & Labrador,A0B3K0,47.449937,-53.560304
JR78,CHEM INTERNATIONAL,1,CHEM INTERNATIONAL,?,?,?,AB,Alberta,?,999,999
SHOP,YOURSHOPS.CA,1327,SOREL,?,?,?,ON,Ontario,?,999,999
KNBC,KENT BONUS CARD,2,With Compliments,?,?,?,NB,New Brunswick,?,999,999
RN15,RO-NA HARDWARE,5525,RONA GEORGETOWN,348 GUELPH ST,?,GEORGETOWN,ON,Ontario,L7G4B5,43.649041,-79.882312
SWPH,SOBEYS WEST PHARMACIES,5178,SOBEYS PRESTON CROSS,1739 PRESTON AVE N,?,SASKATOON,SK,Saskatchewan,S7N4V2,52.147888,-106.614997
RXAL,REXALL DRUG STORES,8135,MERIVALE&MEADOWLANDS,?,?,?,ON,Ontario,?,45.34976,-75.73265
SBWL,SOBEYS LIQUOR,5070,SOBEYS HOLLICK KENYO,5119 167 AVE NW,?,EDMONTON,AB,Alberta,T5Y0L2,53.6274226,-113.414481
RXAL,REXALL DRUG STORES,7222,20TH AVE BLAIRMORE,"12749 20TH AVENUE, BOX 358",?,BLAIRMORE,AB,Alberta,T0K0E0,49.608068,-114.440292
RXAL,REXALL DRUG STORES,7114,ESPLANADE,9892 ESPLANADE,?,CHEMAINUS,BC,British Columbia,V0R1K1,48.926203,-123.716258
RXAL,REXALL DRUG STORES,7223,50TH ST PONOKA,4502 - 50TH STREET,?,PONOKA,AB,Alberta,T4J1J5,52.672014,-113.579731
RXAL,REXALL DRUG STORES,7103,ADMIRALS ROAD,1511 ADMIRALS ROAD,?,VICTORIA,BC,British Columbia,V9A2P8,48.44923,-123.426272
HFHP,HAMPTON,PIBV,PITTSBURG BRDGVL,?,?,?,YT,Yukon,?,999,999
JR60,ACTION CAR & TRUCK ACCESS,20,ACTION TRUCK,?,?,?,ON,Ontario,?,999,999
19,FOUNTAIN TIRE,123,FOUNTAIN TIRE F123,2309-48TH AVENUE,?,VERNON,BC,British Columbia,V1T3P9,50.281977,-119.262999
JR40,STORAGE MART,64,STORAGEMART,?,?,?,AB,Alberta,?,999,999
BUDG,BUDGET RENT A CAR,0XNN,BURLINGTON ON,8-1400 PLAINS RD E,?,BURLINGTON,ON,Ontario,L7R3P8,43.337157,-79.818111
MCHL,MICHAELS,4916,"CAL-AIRDRIE, AB",2771 MAIN ST SW,STE 110,AIRDRIE,AB,Alberta,T4B3G2,51.266762,-114.007298
SHEL,SHELL CANADA,3FED,FJ-REGINA,1511 E ROSS AVE,?,REGINA,SK,Saskatchewan,S4N7E5,50.465044,-104.563004
SHEL,SHELL CANADA,3F38,FJ-MERRITT,2190 DOUGLAS ST N,?,MERRITT,BC,British Columbia,V1K1B8,50.109488,-120.77185
SHOP,YOURSHOPS.CA,1317,BIG FISH GAMES,?,?,?,ON,Ontario,?,999,999
JR57,WILFRID LAURIER UNIV,1,WLU BOOK STORE,?,?,?,ON,Ontario,?,999,999
SBYW,SOBEYS WEST,5126,RED LAKE,HIGHWAY 105,?,RED LAKE,ON,Ontario,P0V2M0,51.016765,-93.821172
SBYW,SOBEYS WEST,5105,BRANDON SOUTH,1645B - 18 STREET,?,BRANDON,MB,Manitoba,R7A5C6,49.824747,-99.957942
SBYW,SOBEYS WEST,5158,ALBERT STREET,4250 ALBERT STREET,?,REGINA,SK,Saskatchewan,S4S3R6,50.411066,-104.619648
SBYW,SOBEYS WEST,3132,BEAUMARIS,15367 CASTLEDOWNS ROAD,?,EDMONTON,AB,Alberta,T5X6C3,53.615471,-113.51465
JR40,STORAGE MART,15,STORAGEMART,?,?,?,QC,Quebec,?,999,999
SWPH,SOBEYS WEST PHARMACIES,1110,TUSCANY BOULEVARD,2020-11300 TUSCANY BOULEVARD NE,?,CALGARY,AB,Alberta,T3L2V7,51.124792,-114.248646
SWPH,SOBEYS WEST PHARMACIES,3154,PRESTON,1739 PRESTON AVENUE NORTH,?,SASKATOON,SK,Saskatchewan,S7N4V2,52.1496503,-106.6152912
IGAQ,IGA SUPERMARKETS,6025,IGA MINI,1640 RUE TRUDEL,?,SHAWINIGAN,QC,Quebec,G9N0A2,46.5568107,-72.7504945
JR47,1882540 ONTARIO LTD,1,WHAT A BLOOM,?,?,?,ON,Ontario,?,999,999
16,GOODYEAR CANADA - CENTRAL,2224,ROYAL TIRE & SERVICE,770 BARRYDOWNE RD,?,SUDBURY,ON,Ontario,P3A3T7,46.5132,-80.94421
SHOP,YOURSHOPS.CA,1301,MACKAGE / SOIA & KYO,?,?,?,ON,Ontario,?,999,999
SHOP,YOURSHOPS.CA,1304,HATLEY,?,?,?,ON,Ontario,?,999,999
KNTC,KBS KENT CARD,25,HALIFAX BOX,225 CHAIN LAKE DRIVE,?,HALIFAX,NS,Nova Scotia,B3S1C9,999,999
5000,SAFEWAY CONVERSION,4958,PARKGATE VILLAGE,1175 MT. SEYMOUR ROAD,?,NORTH VANCOUVER,BC,British Columbia,V7H2Y4,49.31601,-122.96913
5000,SAFEWAY CONVERSION,4825,HENDERSON & BRONX,731 HENDERSON,?,WINNIPEG,MB,Manitoba,R2K2K4,49.92725,-97.10407
5000,SAFEWAY CONVERSION,4807,COURT STREET,70 NORTH COURT STREET,?,THUNDER BAY,ON,Ontario,P7B2Z3,48.43786,-89.22017
5000,SAFEWAY CONVERSION,4891,CATHEDRAL SAFEWAY,2931 13TH AVE,?,REGINA,SK,Saskatchewan,S4T1N8,50.44541,-104.62355
BW61,CANADA HEARING CENTRE LTD,158,LISTENUP! CANADA,?,?,?,ON,Ontario,?,999,999
BW92,PARKRIDGE LIFESTYLE COMM,13,BRIDGE PORT MARINA,?,?,?,ON,Ontario,?,999,999
KENT,KENT BUILDING SUPPLIES,45,GRAND FALLS,88 POWERS ROAD,?,GRAND FALLS,NB,New Brunswick,E3Y3X4,47.058575,-67.750638
HFGI,HILTON GARDEN INN,COVG,COVINGTON,?,?,?,YT,Yukon,?,999,999
HFHP,HAMPTON,CHAK,KIMBALL,?,?,?,YT,Yukon,?,999,999
HFDT,DOUBLE TREE,PXMP,PHOENIX TEMPE,?,?,?,YT,Yukon,?,999,999
HFES,EMBASSY SUITES,SLCY,SLC WEST VALLEY,?,?,?,YT,Yukon,?,999,999
HFHT,HOME2SUITES,FARH,FARGO,?,?,?,YT,Yukon,?,999,999
JR28,LES ENTREPRISES PREMIERE,10,PREMIERE GENERALE,?,?,?,QC,Quebec,?,999,999
RN15,RO-NA HARDWARE,3352,RONA CASHWAY SF,R.R. #1 LOMBARDY RD,?,SMITH FALLS,ON,Ontario,K7A5B8,44.890197,-76.032044
WRPL,WHIRLPOOL CANADA,447,KONDOLAS FURNITURE T,4525 LAKELSE AVENUE,?,TERRACE,BC,British Columbia,V8G1P3,54.516199,-128.583752
WRPL,WHIRLPOOL CANADA,283,YES APPLIANCE,3290 MIDLAND AVENUE UNIT 10,?,TORONTO,ON,Ontario,M1V4W9,43.8068,-79.28879
WRPL,WHIRLPOOL CANADA,169,FRIENDLY APPLIANCE C,640 HENDERSON DRIVE,?,REGINA,SK,Saskatchewan,S4N5X3,50.47403,-104.57412
WRPL,WHIRLPOOL CANADA,252,THE PLACE COUNTRYWID,"UNIT #3, 1950 PENINSULA RD",?,UCLUELET,BC,British Columbia,V0R3A0,48.93981,-125.54445
WRPL,WHIRLPOOL CANADA,128,DOMON LIMITEE,1950 RUE REMEMBRANCE,?,LACHINE,QC,Quebec,H8S1W9,45.437987,-73.682032
SHL3,SHELL CANADA,DD42,375 ROUTE 8,375 ROUTE 8,?,NASHWAAK VILLAGE,NB,New Brunswick,E6C1M5,999,999
WRPL,WHIRLPOOL CANADA,180,FURNITURE VILLAGE,826 9TH ST W,?,MEADOW LAKE,SK,Saskatchewan,S9X1Y7,54.13151,-108.43176
WRPL,WHIRLPOOL CANADA,108,ACCENT MEUBLES LAC M,3954 RUE LAVAL,?,LAC MEGANTIC,QC,Quebec,G6B2W9,45.58596,-70.89909
BUDG,BUDGET RENT A CAR,0XAL,MESA SEARS AUTO AZ,6343 EAST SOUTHERN AVE,?,MESA AZ,YT,Yukon,A1A1A1,999,999
HIEX,HOLIDAY INN EXPRESS,RVGO,GOLDEN-TRANSCAN HWY1,?,?,?,BC,British Columbia,?,999,999
GEWL,GERRIE ELECTRIC WHOLESAL,20,CAMBRIDGE BRANCH,1195 FRANKLIN BLVD,?,CAMBRIDGE,ON,Ontario,N1R7R7,43.40512,-80.30643
IGAQ,IGA SUPERMARKETS,8753,TRADITION,2 1RE AV,?,FORESTVILLE,QC,Quebec,G0T1E0,48.739111,-69.087399
JR09,WATER DEPOT 1720618 ONT.,21,WATER DEPOT P. SOUND,51 MILLER ST,?,PARRY SOUND,ON,Ontario,P2A1S9,45.347531,-80.032387
LMWB,MM AUTO-ISSUANCE VIA WEB,1089,BARENECESSITIES.COM,?,?,?,ON,Ontario,?,999,999
LMWB,MM AUTO-ISSUANCE VIA WEB,1151,B&T FACTORY DIRECT,?,?,?,ON,Ontario,?,999,999
LMWB,MM AUTO-ISSUANCE VIA WEB,1003,AMERICAN EXPRESS,?,?,?,ON,Ontario,?,999,999
33,CENTURY 21,567,ICARUS REALTY LTD.,5-6404 METRAL DR,?,NANAIMO,BC,British Columbia,V9T2L8,49.231709,-124.042836
HFDT,DOUBLE TREE,BRSR,DOUBLETREE BY HILTON,?,?,?,YT,Yukon,?,999,999
SHL5,SHELL CANADA,DD32,123 FOORD STREET,123 FOORD ST,?,STELLARTON,NS,Nova Scotia,B0K1S0,999,999
IOCC,IRVING COUCHE-TARD CSTORE,6128,DIEPPE BLVD CIRCLE K,330 BOUL DIEPPE,?,DIEPPE,NB,New Brunswick,E1A6P8,46.10436,-64.70761
RMBC,RETAIL MEDIA GROUP,PBQB,Philip Barry,?,?,?,QC,Quebec,?,999,999
JR02,SIGN A RAMA,13,SIGNARAMA BRAMPTON W,15-289 RUTHERFORD RD S,?,BRAMPTON,ON,Ontario,L6W3R9,43.68203,-79.71943
5,SAFEWAY,301,CATHEDRAL SAFEWAY,2931 13TH AVE,?,REGINA,SK,Saskatchewan,S4T1N8,50.44541,-104.62355
BW95,SECURTEK MONITORING SOLUT,3,APPLIED COMM,?,?,?,AB,Alberta,?,999,999
CR44,CAN-RAD BEAUTY LTD.,114,LORNE PARK SALON/SPA,1107 LORNE PARK RD,?,MISSISSAUGA,ON,Ontario,L5H3A1,999,999
BEST,BEST WESTERN INTERNAT'NAL,C668,WINSTON SALEM NC,?,?,?,YT,Yukon,?,999,999
IGAQ,IGA SUPERMARKETS,8368,IGA EXTRA GLADU,400 BOUL DU SEMINAIRE N,?,SAINT-JEAN-SUR-RICHELIEU,QC,Quebec,J3B5L2,45.31271,-73.2654
IGAQ,IGA SUPERMARKETS,8049,IGA FAM. GUILBAULT,3450 RUE QUEEN,?,RAWDON,QC,Quebec,J0K1S0,46.03754,-73.69984
IGAQ,IGA SUPERMARKETS,8205,IGA POIRIER,484 RUE PRINCIPALE,?,HUDSON,QC,Quebec,J0P1H0,45.459491,-74.143686
IGAQ,IGA SUPERMARKETS,8197,GAGNON & FILLE,2137 BOUL CURE-LABELLE,?,LAVAL,QC,Quebec,H7T1L4,45.556764,-73.765985
BW86,BROKERHOUSE DISTRIBUTORS,5,VENDING PRODUCTS CAN,?,?,?,BC,British Columbia,?,999,999
IGAQ,IGA SUPERMARKETS,286,IGA GAZAILLE,461 CH DE KNOWLTON,?,LAC-BROME,QC,Quebec,J0E1V0,45.21467,-72.52644
IGAQ,IGA SUPERMARKETS,464,IGA EXTRA COOP,999 AV DE BOURGOGNE,?,QUEBEC,QC,Quebec,G1W4S6,46.76543,-71.31097
IGAQ,IGA SUPERMARKETS,530,IGA GRANDE-RIVIERE,143 GRANDE ALLEE E,?,GRANDE-RIVIERE,QC,Quebec,G0C1V0,48.39589,-64.4923
BW85,CITRUS-O CARPET CARE INC.,1,CITRUS O CARPET CARE,?,?,?,BC,British Columbia,?,999,999
IGAQ,IGA SUPERMARKETS,410,FAMILLE LAFLAMME,771 AV ROYALE,?,BEAUPORT,QC,Quebec,G1E1Z1,46.862445,-71.187536
BW61,CANADA HEARING CENTRE LTD,1,CANADA HEARING,?,?,?,AB,Alberta,?,999,999
BW61,CANADA HEARING CENTRE LTD,47,LISTENUP! CANADA,?,?,?,ON,Ontario,?,999,999
BW61,CANADA HEARING CENTRE LTD,42,HEARINGLIFE CANADA,?,?,?,BC,British Columbia,?,999,999
BW61,CANADA HEARING CENTRE LTD,101,LISTENUP! CANADA,?,?,?,ON,Ontario,?,999,999
SBYA,SOBEYS INC,325,PRIMROSE STREET,6 PRIMROSE ST,?,DARTMOUTH,NS,Nova Scotia,B3A4C5,44.68171,-63.58637
IOMC,IRVING C-STORE,C715,MEDUCTIC GAS BAR,"10576, ROUTE 2",?,MEDUCTIC,NB,New Brunswick,E6H1J2,45.99756,-67.4977
IOMG,IRVING,A312,CHARLO SVC STATION,230 CHALEUR ST,?,CHARLO,NB,New Brunswick,E8E2E9,48.00732,-66.34495
IOMG,IRVING,K513,SANDRINGHAM GAS BAR,138 MAIN STREET,?,SANDRINGHAM,NL,Newfoundland & Labrador,A0G3Y0,49.24351,-55.0592
BW83,SELFCARE HOME HEALTH PROD,?,?,?,?,?,?,Unknown,?,999,999
SHEL,SHELL CANADA,DD11,SOBEYS BERTHIERVILLE,1181 AV GILLES-VILLENEUVE,?,BERTHIERVILLE,QC,Quebec,J0K1A0,46.089984,-73.199438
SHOP,YOURSHOPS.CA,1266,TOMS CANADA,?,?,?,ON,Ontario,?,999,999
FLOR,UNITED FLOORS,1813,UNITED FLOORS CHATHA,71 SASS RD RR 4,?,CHATHAM,ON,Ontario,N7M5J4,42.41129,-82.16433
UNIS,AUTO PLUS AUTO PART PLUS,S024,AGRATEC INT'L,HWY. 318,?,CARNDUFF,SK,Saskatchewan,S0C0S0,49.17553,-101.79782
NAVY,OLD NAVY,5463,BRAMALEA CITY CENTRE,25 PEEL CENTRE DRIVE,?,BRAMPTON,ON,Ontario,L6T3R5,43.7144,-79.72507
NAVY,OLD NAVY,3461,METROPOLIS AT METROT,4700 KINGSWAY,?,BURNABY,BC,British Columbia,V5H4M1,49.22829,-122.99938
IGAQ,IGA SUPERMARKETS,1915,MARCHE CARRIERE INC.,27 RUE PRINCIPALE O,?,L'ASCENSION,QC,Quebec,J0T1W0,46.55211,-74.83203
IGAQ,IGA SUPERMARKETS,777,ST-VICTOR TRADITION,137 RUE COMMERCIALE,?,SAINT-VICTOR,QC,Quebec,G0M2B0,46.14569,-70.90401
ELNK,EASTLINK,13,HIGHLAND SQUARE MALL,689 WESTVILLE ROAD,UNIT 220,NEW GLASGOW,NS,Nova Scotia,B2H2J6,45.57881,-62.6638
IRIS,IRIS,616,IRIS,3292 DUNMORE RD SE,?,MEDICINE HAT,AB,Alberta,T1B2R4,50.004456,-110.643382
IOMG,IRVING,7802,GRAND FALLS HARDY,46 HARDY AVE,?,GRAND FALLS,NL,Newfoundland & Labrador,A2A2J3,48.95061,-55.64784
IOMC,IRVING C-STORE,5711,FREDERICTON JCT IRV,207 SUNBURY DRIVE,?,FREDERICTON JUNCTION,NB,New Brunswick,E5L1R7,45.66349,-66.6148
IOBC,IRVING BULLOCH,5713,BISHOP DRIVE IRVING,30 LIAN ST,?,FREDERICTON,NB,New Brunswick,E3C0A2,45.94418,-66.69019
SHOP,YOURSHOPS.CA,1255,CYMAX,?,?,?,ON,Ontario,?,999,999
SBYP,SOBEYS ATL. IN-STORE PHAR,719,DIGBY,"110 Warwick St., Digby",?,Digby,NS,Nova Scotia,B0V1A0,44.62297,-65.76783
SBYP,SOBEYS ATL. IN-STORE PHAR,322,BRIDGEWATER,349 LAHAVE STREET,?,BRIDGEWATER,NS,Nova Scotia,B4V3A2,44.37671,-64.51266
CR44,CAN-RAD BEAUTY LTD.,98,LUCE HAIR STUDIO,170 PRINCESS ST,?,KINGSTON,ON,Ontario,K7L1B1,999,999
SHL5,SHELL CANADA,DD0E,PHILIPPE GOSSELIN &,1582 RUE DU SUD,?,COWANSVILLE,QC,Quebec,J2K2Y8,999,999
BEST,BEST WESTERN INTERNAT'NAL,C629,TALLAHASSEE FL,?,?,?,YT,Yukon,?,999,999
IGAQ,IGA SUPERMARKETS,8735,REAL CHARTIER,377 RUE PRINCIPALE,?,SAINT-SAUVEUR,QC,Quebec,J0R1R0,45.890768,-74.162454
RMBC,RETAIL MEDIA GROUP,ATNB,Avon Canada,?,?,?,NL,Newfoundland & Labrador,?,999,999
RM99,SERVICE CORPORATION INT'L,168,HASTINGS DIONNE FH,?,?,?,SK,Saskatchewan,?,999,999
SPLS,STAPLES,166,BELLEVILLE,190 BELL BLVD.,?,BELLEVILLE,ON,Ontario,K8P5L2,44.18646,-77.40455
SPLS,STAPLES,236,ANJOU,11250 RUE RENAUDE-LAPOINTE,?,ANJOU,QC,Quebec,H1J2V7,45.61171,-73.5905
SPLS,STAPLES,134,OWEN SOUND,1077 10TH ST.W.,?,OWEN SOUND,ON,Ontario,N4K5S2,44.56152,-80.9672
SPLS,STAPLES,70,MIDTOWN-T.O.,1140 YONGE STREET,?,TORONTO,ON,Ontario,M4W2L8,43.67976,-79.39079
SPLS,STAPLES,260,TILLSONBURG TC,200 BROADWAY STREET,?,TILLSONBURG,ON,Ontario,N4G5A7,42.86227,-80.72938
RN15,RO-NA HARDWARE,5540,RONA WESTDALE MALL,1151 DUNDAS ST W,?,MISSISSAUGA,ON,Ontario,L5C1C6,43.556156,-79.644359
33,CENTURY 21,3255,KELLEHER REAL ESTATE,1151 DUNDAS ST W,?,MISSISSAUGA,ON,Ontario,L5C1C6,43.557041,-79.643381
MCHL,MICHAELS,4958,DRUMMONDVILLE,MEGA CENTRE DRUMMONDVILLE,850 RUE HAINS,DRUMMONDVILLE,QC,Quebec,J2C0J2,45.899651,-72.522312
MART,MARLIN TRAVEL,778,MARLIN TRAVEL LADNER,5203 48TH AVENUE,?,DELTA,BC,British Columbia,V4K1W4,49.090316,-123.078656
CV01,CLUB VOYAGES,570,CV SUPER SOLEIL,300 RUE BARKOFF,?,CAP-DE-LA-MADELEINE,QC,Quebec,G8T2A3,46.37109,-72.55834
CV01,CLUB VOYAGES,577,CV DUMOULIN,334 RUE PRINCIPALE,?,ST-ZOTIQUE,QC,Quebec,J0P1Z0,45.25332,-74.22521
RN15,RO-NA HARDWARE,6106,RONA REVY SURREY,?,?,?,BC,British Columbia,?,49.15044,-122.76104
TRUN,TOYS R US,3532,LONDONDERRY MALL,137 AVENUE & 66TH STREET,?,EDMONTON,AB,Alberta,T5C3C8,53.60189,-113.44361
MCHL,MICHAELS,3622,HYLANDS CENTER,1737 RICHMOND ST,?,LONDON,ON,Ontario,N5X3X2,43.02771,-81.28344
MCHL,MICHAELS,3903,SHAWNESSY CENTRE,"130, 350R SHAWVILLE BLVD SE",?,CALGARY,AB,Alberta,T2Y3S4,50.89861,-114.06262
SPLS,STAPLES,119,SHERWOOD PARK,350 390 BASELINE RD.,?,SHERWOOD PARK,AB,Alberta,T8H1X1,53.54138,-113.29754
BUDG,BUDGET RENT A CAR,0WZU,BROSSARD,8245 BOUL TASCHEREAU,?,BROSSARD,QC,Quebec,J4Y1A4,45.447316,-73.46958
BOST,BOSTON PIZZA INTERN'AL,4,Shellbourne St,3994 SHELBOURNE STREET,?,VICTORIA,BC,British Columbia,V8N3E1,48.471899,-123.332909
TEST,AIR MILES REWARD PROGRAM,52,DEMO 3,123 ANYWHERE STREET,?,NOWHERE,AB,Alberta,M1M1M1,43.7126,-79.2465
MALO,VITROPLUS/ZIEBART,91,VITROPLUS/ZIEBART DO,2600 BOUL PITFIELD,?,SAINT-LAURENT,QC,Quebec,H4S1G9,45.49492,-73.74445
2,BMO BANK OF MONTREAL,128,BMO BANK OF MONTREAL,6951 CH. DE LA COTE-ST-LUC,?,COTE-SAINT-LUC,QC,Quebec,H4V1J2,45.466345,-73.653362
DEMF,DAOUST & MICHEL FORGET,D160,9 Bl.Seig Blainville,"9, BOUL. DE LA SEIGNEURIE",?,BLAINVILLE,QC,Quebec,J7C4G6,45.67045,-73.86543
5,SAFEWAY,291,DALHOUSIE STATION,5005 DALHOUSIE DRIVE NW,?,CALGARY,AB,Alberta,T3A5R8,51.10539,-114.15654
PPDM,PHARMA PLUS DRUGMARTS,1495,HOLLAND CROSS,"1620 SCOTT STREET, UNIT 29",?,OTTAWA,ON,Ontario,K1Y4S7,45.40368,-75.73426
CHBC,THE CHILDREN'S PLACE BC,3224,WOODGROVE CENTRE,UNIT 79 6631 ISLAND HWY N,?,NANAIMO,BC,British Columbia,V9T4T7,49.23685,-124.05056
2,BMO BANK OF MONTREAL,785,BMO BANK OF MONTREAL,250 GREENBANK RD,?,OTTAWA,ON,Ontario,K2H8X4,45.324224,-75.778464
BEST,BEST WESTERN INTERNAT'NAL,C212,COURTENAY BC,1590 Cliffe Ave,?,Courtenay,BC,British Columbia,V9N2K4,49.68487,-124.99126
BUDG,BUDGET RENT A CAR,797,EDMONTON  AB,9926 35 AVENUE,?,EDMONTON,AB,Alberta,T6E6B2,53.46897,-113.48684
LAWT,LAWTONS,144,Scotia Square,5201 DUKE ST,SCOTIA SQUARE,HALIFAX,NS,Nova Scotia,B3J1N9,44.649229,-63.57529
TURB,TURBO,79F1,8908 96a St,8908 - 96A STREET,?,FORT ST JOHN,BC,British Columbia,V1J6E2,56.23807,-120.84084
PEPL,PEOPLES JEWELLERS,5167,HALIFAX CENTRE,7001 MUMFORD ROAD,?,HALIFAX,NS,Nova Scotia,B3L2H8,44.64847,-63.6209
2,BMO BANK OF MONTREAL,307,BMO BANK OF MONTREAL,2727 PORTAGE AVE,?,WINNIPEG,MB,Manitoba,R3J0R2,49.878122,-97.272686
SHEL,SHELL CANADA,03B5,75 Eardley Aylmer QC,75 EARDLEY ROAD,?,GATINEAU/HULL,QC,Quebec,J9H4K5,45.400198,-75.852657
MAPP,MAPPINS,5289,ABERDEEN MALL,"1320 W. TRANS CANADA HWY, UNIT 124",?,KAMLOOPS,BC,British Columbia,V1S1J2,50.65478,-120.37148
2,BMO BANK OF MONTREAL,246,BMO BANK OF MONTREAL,763 BAY,?,TORONTO,ON,Ontario,M5G2R3,43.659501,-79.385172
APDO,METRO,712,5383 Yonge St.,20 CHURCH AVE,NORTHTOWN CENTRE,NORTH YORK,ON,Ontario,M9N1M3,43.775199,-79.414271
SHEL,SHELL CANADA,0AAA,930 Des Recollets,930 BOUL DES RECOLLETS,?,TROIS RIVIERES,QC,Quebec,G8Z3W8,46.358889,-72.571944
SHEL,SHELL CANADA,7D3G,1119 Dufferin Av,?,?,?,ON,Ontario,?,42.592956,-82.394833
SHEL,SHELL CANADA,188F,2435 Finch Ave W,2435 FINCH AVENUE WEST,?,NORTH YORK,ON,Ontario,M9M2E6,43.75042,-79.54945
JENN,JENNY CRAIG CANADA,1821,MARKHAM CENTRE,72 COPPER CREEK DR,UNIT 104,MARKHAM,ON,Ontario,L6B0P2,43.86608,-79.22896
LCBO,LCBO,8,908 St Clair W TO,908 ST. CLAIR AVENUE WEST,?,TORONTO,ON,Ontario,M6C1C6,43.680096,-79.43379
33,CENTURY 21,2541,MILLER REAL ESTATE,467 SPEERS ROAD,?,OAKVILLE,ON,Ontario,L6K3S4,43.43743,-79.69736
16,GOODYEAR CANADA - CENTRAL,7725,STREETVILLE AUTO,64 THOMAS ST,UNIT 1,MISSISAUGA,ON,Ontario,L5M1Y7,43.577999,-79.714516
BOST,BOSTON PIZZA INTERN'AL,450,Scarborough Town,400 PROGRESS AVE,?,SCARBOROUGH,ON,Ontario,M1P5J1,43.775473,-79.263076
33,CENTURY 21,2899,CITY REALTY INC.,91 QUEEN STREET,PO BOX 662,NIAGARA ON THE LAKE,ON,Ontario,L0S1J0,43.25641,-79.07383
NSLC,NOVA SCOTIA LIQUOR,2185,SPRYFIELD,279 HERRING COVE RD,?,HALIFAX,NS,Nova Scotia,B3P1M2,44.61725,-63.61464
RN20,RONA L'ENTREPOT,550,RONA (HALIFAX),350 HORSESHOE LAKE DR,?,HALIFAX,NS,Nova Scotia,B3S0B4,44.63776,-63.67225
FRAM,FRAMING & ART CENTRE,THBA,"Thunder Bay, Ontario",1186 MEMORIAL AVENUE,?,THUNDER BAY,ON,Ontario,P7B6P9,48.4006,-89.246
LCBO,LCBO,175,Orillia,201 MISSISSAGA STREET EAST,?,ORILLIA,ON,Ontario,L3V1W1,44.610303,-79.414552
SHEL,SHELL CANADA,814B,3690 Johnston Rd,3690 JOHNSTON RD,?,PORT ALBERNI,BC,British Columbia,V9Y5N7,49.265686,-124.788475
PPDM,PHARMA PLUS DRUGMARTS,1313,RICHMOND HILL,10870 YONGE STREET,?,RICHMOND HILL,ON,Ontario,L4C3E4,43.89254,-79.44231
RXAL,REXALL DRUG STORES,8121,MALDEN & SPRUCEWOOD,5881 MALDEN ROAD,?,LA SALLE,ON,Ontario,N9H1S5,42.24822,-83.06067
33,CENTURY 21,3228,LANDSTARS REALTY,203-350 HIGHWAY 7 EAST,?,RICHMOND HILL,ON,Ontario,L4B3N2,43.84294,-79.38925
CRST,CARSTAR AUTOMOTIVE CANADA,50,CARSTAR NORTH BAY,"23 COMMERCE CT, BOX 597",?,NORTH BAY,ON,Ontario,P1B8J5,46.312853,-79.429103
PJCQ,JEAN COUTU,49,1001 MONTARVILLE,"1001, BOULEVARD MONTARVILLE",?,BOUCHERVILLE,QC,Quebec,J4B6P5,45.590227,-73.433475
LCBO,LCBO,333,1st Canadian Place,FIRST CANADIAN PLACE,LOWER CONCOURSE,TORONTO,ON,Ontario,M5X1B1,43.648316,-79.382195
13,NATIONAL TILDEN,L206,LINDSAY,129 ANGELINE ST NORTH,?,LINDSAY,ON,Ontario,K9V4M9,44.35874,-78.75462
2,BMO BANK OF MONTREAL,114,BMO BANK OF MONTREAL,179 BOUL. D'ANJOU,?,CHATEAUGUAY,QC,Quebec,J6J2R3,45.35973,-73.72567
HBCR,HBC REWARDS,5134,HOME OUTFITTERS,991 TAUNTON ROAD EAST,?,OSHAWA,ON,Ontario,L1K0H7,43.9414,-78.84073
SHEL,SHELL CANADA,240,9405 Lacordaire,9405 LACORDAIRE,?,ST-LEONARD,QC,Quebec,H1R3E8,45.599686,-73.612147
RN15,RO-NA HARDWARE,9968,RONA 24540- 16TH AVE,24540 16 AVE,?,LANGLEY,BC,British Columbia,V2Z1J9,49.03046,-122.54453
BOST,BOSTON PIZZA INTERN'AL,545,UXBRIDGE,284 TORONTO ST S,?,UXBRIDGE,ON,Ontario,L9P0C5,44.093964,-79.13118
BUDG,BUDGET RENT A CAR,0W8H,T BUDGET FIREHALL TR,140 6TH AVENUE SOUTHEAST,?,CALGARY,AB,Alberta,T2G0G2,51.04745,-114.06053
SHEL,SHELL CANADA,0A00,Greenfield Park QC,"3337,BOUL TASCHEREAU",?,GREENFIELD PARK,NS,Nova Scotia,J4V2H5,45.493632,-73.479177
UNIS,AUTO PLUS AUTO PART PLUS,C064,Auto Place/Procare,1755 SPRINGFIELD,?,KELOWNA,BC,British Columbia,V1Y5V5,49.87668,-119.4596
SHEL,SHELL CANADA,20H2,Mission BC,32588 LOGAN AVENUE,?,MISSION,BC,British Columbia,V2V6C7,49.133753,-122.322176
MAPP,MAPPINS,5520,NIAGARA SQUARE S.C.,7555 MONTROSE ROAD,?,NIAGARA FALLS,ON,Ontario,L2H2E9,43.073604,-79.12507
2,BMO BANK OF MONTREAL,36,BMO BANK OF MONTREAL,556 QUEEN ST E,?,SAULT STE MARIE,ON,Ontario,P6A2A1,46.509295,-84.329773
BOST,BOSTON PIZZA INTERN'AL,524,Orangeville,5 BUENA VISTA DRIVE,?,ORANGEVILLE,ON,Ontario,L9W0A2,43.922577,-80.081565
LCBO,LCBO,156,Delrex Market Ctr,236 GUELPH ST,DELREX MARKET CENTRE,GEORGETOWN,ON,Ontario,L7G4B1,43.649909,-79.897923
SHEL,SHELL CANADA,076E,5706 Hwy 7 Markham,5706 HIGHWAY 7,?,MARKHAM,ON,Ontario,L3P1B4,43.87133,-79.26802
RN01,RONA LE QUINCAILLIER,476,"Mont-Royal,Montreal","2140, MONT-ROYAL EST",?,MONTREAL,QC,Quebec,H2H1J8,45.53544,-73.57207
BOST,BOSTON PIZZA INTERN'AL,63,Langley By Pass,19700 LANGLEY BYPASS,?,LANGLEY,BC,British Columbia,V3A7B1,49.110881,-122.677249
PJCQ,JEAN COUTU,488,MERCIER,775 BOUL SAINT-JEAN-BAPTISTE,?,MERCIER,QC,Quebec,J6R1G1,45.315105,-73.742737
NSLL,NOVA SCOTIA LIQUOR,2270,PORTERS LAKE,"5240 HIGHWAY #7, UNIT 2",LAKEVIEW SHOPPING PLAZA,PORTERS LAKE,NS,Nova Scotia,B3E1J7,44.74406,-63.28216
PPDM,PHARMA PLUS DRUGMARTS,380,BARRHAVEN MALL,"900 GREENBANK RD., UNIT 106",?,NEPEAN,ON,Ontario,K2J1S8,45.28562,-75.75571
HBCR,HBC REWARDS,5105,HOME OUTFITTERS,THICKSON RIDGE POWER CENTRE,1650 VICTORIA STREET E.,WHITBY,ON,Ontario,L1N9L4,43.86686,-78.90122
19,FOUNTAIN TIRE,109,FOUNTAIN TIRE F109,1039 GREAT STREET,?,PRINCE GEORGE,BC,British Columbia,V2N2K8,53.88073,-122.74086
BUDG,BUDGET RENT A CAR,4200,HALIFAX  NS-DTN,1588 HOLLIS STREET,METROPARK,HALIFAX,NS,Nova Scotia,B3J1V8,44.64726,-63.57275
RN05,RONA L'EXPRESS,1014,RONA QUINC WHALEN,1250 RTE PRINCIPALE,?,VAL-DES-MONTS,QC,Quebec,J8N2K6,45.70103,-75.71663
2,BMO BANK OF MONTREAL,608,BMO BANK OF MONTREAL,4800 DUFFERIN ST,?,DOWNSVIEW,ON,Ontario,M3H5S8,43.779001,-79.469506
UNIS,AUTO PLUS AUTO PART PLUS,4003,AUTOCHOICE PARTS,475 WINDMILL RD,?,DARTMOUTH,NS,Nova Scotia,B3B1B2,44.688,-63.59938
BOST,BOSTON PIZZA INTERN'AL,311,"St. Vital, Winnipeg",1919 BISHOP GRANDIN BLVD,?,WINNIPEG,MB,Manitoba,R2M3E8,49.83796,-97.094357
SHEL,SHELL CANADA,7A21,Wabamun AB,HIGHWAY 16 WEST,?,WABAMUN,MB,Manitoba,T0E2K0,53.562806,-114.468115
PJCQ,JEAN COUTU,345,ST GEORGES DE BEAUCE,9015 BOUL LACROIX,?,ST GEORGES DE BEAUCE,QC,Quebec,G5Y2B4,46.13075,-70.69465
2,BMO BANK OF MONTREAL,188,BMO BANK OF MONTREAL,378 LAKESHORE RD E,?,MISSISSAUGA,ON,Ontario,L5G1H5,43.563575,-79.572703
LCBO,LCBO,705,Sherwood Forest Ctr,1900 DUNDAS STREET WEST,SHERWOOD FORREST MALL VINTAGES,MISSISSAUGA,ON,Ontario,L5K1P9,43.53986,-79.66261
SHEL,SHELL CANADA,7A48,1907 - 18 Ave Coaldale,?,?,?,AB,Alberta,?,49.729203,-112.622461
2,BMO BANK OF MONTREAL,865,BMO BANK OF MONTREAL,1 SPADINA ROAD,?,RICHMOND HILL,ON,Ontario,L4B3M2,43.860731,-79.39607
DEMF,DAOUST & MICHEL FORGET,D078,2050 R.Laennec Laval,"2050-B, BOUL. RENE LAENNEC",?,LAVAL,QC,Quebec,H7M5B1,45.60998,-73.72065
5,SAFEWAY,586,SARGENT,600 SARGENT,?,WINNIPEG,MB,Manitoba,R3E0A1,49.89646,-97.15922
2,BMO BANK OF MONTREAL,839,BMO BANK OF MONTREAL,9911 CHIILA BLVD S.W.,?,TSUU T'INA,AB,Alberta,T2W6H6,50.949051,-114.14462
BUDG,BUDGET RENT A CAR,4297,REGINA  SK DTN,2401 1ST AVENUE NORTH,?,REGINA,SK,Saskatchewan,S4R8L5,50.46853,-104.6173
CRST,CARSTAR AUTOMOTIVE CANADA,2001,CARSTAR SASKNORTHEND,813 51ST ST E,51ST STREET & MILLER AVENUE,SASKATOON,SK,Saskatchewan,S7K0X7,52.17281,-106.65193
PJCQ,JEAN COUTU,153,95 CURE LABELLE,"95, BOUL.CURE LABELLE",?,SAINTE-THERESE,QC,Quebec,J7E2X6,45.644297,-73.835358
2,BMO BANK OF MONTREAL,742,BMO BANK OF MONTREAL,281 BARTON ST E,?,HAMILTON,ON,Ontario,L8L2X4,43.261127,-79.853263
SHEL,SHELL CANADA,00C4,1740Idylwyld Dr N,1740 IDLYWYLD,?,SASKATOON,SK,Saskatchewan,S7L1B3,52.152396,-106.670076
TEST,AIR MILES REWARD PROGRAM,31,TEST31,438 UNIVERSITY,?,TORONTO,ON,Ontario,M5G2L1,43.6543,-79.38842
VSNS,VISIONS ELECTRONICS,20,REGINA WEST,1440 Albert Street,?,Regina,SK,Saskatchewan,S4R2R7,50.45586,-104.61882
LCBO,LCBO,195,1900 EGLINTON AVE E,1900 EGLINTON AVE EAST,?,SCARBOROUGH,ON,Ontario,M1L2L9,43.72737,-79.29324
2,BMO BANK OF MONTREAL,391,BMO BANK OF MONTREAL,230 MENZIES ST,?,VICTORIA,BC,British Columbia,V8V2G7,48.415503,-123.374036
LCBO,LCBO,507,Garson,3060 FALCONBRIDGE HWY.,?,GARSON,ON,Ontario,P3L1P6,46.549303,-80.876785
BUDG,BUDGET RENT A CAR,4428,WHITEHORSE YT DTN,4178 4TH AVENUE,?,WHITEHORSE,YT,Yukon,Y1A1J6,60.72404,-135.0613
SHEL,SHELL CANADA,3F22,FLYING J - RED DEER,?,?,?,AB,Alberta,?,52.287908,-113.849272
2,BMO BANK OF MONTREAL,10,BMO BANK OF MONTREAL,15 MARKET SQUARE,?,SAINT JOHN,NB,New Brunswick,E2L1E8,45.272964,-66.062438
BUDG,BUDGET RENT A CAR,4375,VAL D'OR  QC-APO,125 7TH STREET,VAL D'OR AIRPORT,VAL D'OR,QC,Quebec,J9P4N9,48.10261,-77.79039
JENN,JENNY CRAIG CANADA,1060,VICTORIA CENTRE,815 CLOVERDALE AVE.,#208,VICTORIA,BC,British Columbia,V8X5H9,48.45075,-123.36978
IRIS,IRIS,680,IRIS,#1506 - 2271 HIGHWAY 97 NORTH,?,KELOWNA,BC,British Columbia,V1Y6H2,49.88171,-119.4378
BOST,BOSTON PIZZA INTERN'AL,504,Niagara Falls,7190 MORRISON STREET,?,NIAGARA FALLS,ON,Ontario,L2E7K5,43.104049,-79.114963
BEST,BEST WESTERN INTERNAT'NAL,C217,KAMLOOPS BC,660 Columbia St West,?,Kamloops,BC,British Columbia,V2C1L1,50.67137,-120.35459
RN15,RO-NA HARDWARE,429,RONA 353 MAIN ST E,353 MAIN ST E,?,KINGSVILLE,ON,Ontario,N9Y1A7,42.03774,-82.72325
13,NATIONAL TILDEN,L2AN,BAIE COMEAU - BOUL L,707 BOUL LAFLECHE,?,BAIE-COMEAU,QC,Quebec,G5C1C6,49.19796,-68.2583
2,BMO BANK OF MONTREAL,134,BMO BANK OF MONTREAL,6025 BOUL. HENRI-BOURASSA E.,?,MONTREAL-NORD,QC,Quebec,H1G2V2,45.607671,-73.617492
SASE,SASKENERGY & NETWORK MEM,6167,MACKENZIE PLBG & HTG,915 FLEURY ST,?,REGINA,SK,Saskatchewan,S4N4W7,50.46547,-104.57667
SHEL,SHELL CANADA,A614,SUPER SOIR RIMOUSKI,?,?,?,QC,Quebec,?,48.438509,-68.535687
2,BMO BANK OF MONTREAL,249,BMO BANK OF MONTREAL,2739 EGLINTON AVE E,?,SCARBOROUGH,ON,Ontario,M1K2S2,43.736516,-79.248119
2,BMO BANK OF MONTREAL,270,BMO BANK OF MONTREAL,6760 MORRISON ST,?,NIAGARA FALLS,ON,Ontario,L2E6Z8,43.103805,-79.097036
LCBO,LCBO,560,Victoria Harbour,144 ALBERT STREET,?,VICTORIA HARBOUR,ON,Ontario,L0K2A0,44.751089,-79.776058
HIEX,HOLIDAY INN EXPRESS,EGYH,EDMONTON,10017 179A ST.,?,EDMONTON,AB,Alberta,T5S2L4,53.53857,-113.63082
SHEL,SHELL CANADA,0E6A,St Cryilee Wendover,2010 ROUTE 122,?,ST CYRILLE DE WENDOVER,QC,Quebec,J1Z1B8,45.909941,-72.452476
SHEL,SHELL CANADA,085E,307 Bayfield St,307 BAYFIELD STREET,?,BARRIE,ON,Ontario,L4M3C2,44.40041,-79.69963
BOST,BOSTON PIZZA INTERN'AL,556,St. Thomas,860 TALBOT STREET,?,ST THOMAS,ON,Ontario,N5P1E2,42.778742,-81.183517
BOST,BOSTON PIZZA INTERN'AL,195,Sherwood Park,11 BROADWAY BLVD,?,SHERWOOD PARK,AB,Alberta,T8H1C1,53.544922,-113.319351
33,CENTURY 21,660,BACHMAN & ASSOCIATES,360 MCMILLAN AVENUE,?,WINNIPEG,MB,Manitoba,R3L0N2,49.87579,-97.14113
BEST,BEST WESTERN INTERNAT'NAL,C264,OTTAWA ON,377 O'Connor St,?,Ottawa,ON,Ontario,K2P2M2,45.41294,-75.69136
HIEX,HOLIDAY INN EXPRESS,RRMP,BARRIE,506 BRYNE DRIVE,?,BARRIE,ON,Ontario,L4N9P6,44.33103,-79.68891
MAPP,MAPPINS,5279,STONE ROAD MALL,"435 STONE ROAD WEST, STE#N10",?,GUELPH,ON,Ontario,N1G2X6,43.518574,-80.237488
VL01,VOYAGES EN LIBERTE,941,VEL TOURBEC GRANBY,"8, rue St-Antoine Sud",?,GRANBY,QC,Quebec,J2G6W3,45.40107,-72.73047
BOST,BOSTON PIZZA INTERN'AL,170,137 Ave Edmonton,5515 137TH AVENUE,?,EDMONTON,AB,Alberta,T5A3L4,53.599206,-113.426354
33,CENTURY 21,715,ADVANCED REALTY,1415A HENDERSON HIGHWAY,?,WINNIPEG,MB,Manitoba,R2G1N3,49.94505,-97.08629
SHEL,SHELL CANADA,225D,689 Wharncliffe Rd S,689 WHARNCLIFFE RD S,?,LONDON,ON,Ontario,N6J2N7,42.94861,-81.25901
2,BMO BANK OF MONTREAL,48,BMO BANK OF MONTREAL,201 MAIN ST,?,BATHURST,NB,New Brunswick,E2A1A9,47.62093,-65.653734
HBCR,HBC REWARDS,5111,HOME OUTFITTERS,SQUARE ONE,100 CITY CENTRE DRIVE,MISSISSAUGA,ON,Ontario,L5B2C9,43.59168,-79.6399
BUDG,BUDGET RENT A CAR,4911,"ALMA, PQ DTN",1594 AVE DU PONT SUD,?,ALMA,QC,Quebec,G8B6N7,48.52578,-71.65213
SHEL,SHELL CANADA,1A2G,New Minas NS,8868 COMMERCIAL STREET,?,NEW MINAS,NS,Nova Scotia,B4N3C7,45.06866,-64.468112
TCPL,THE CHILDREN'S PLACE,3260,LANSDOWNE PLACE,645 LANSDOWNE STREET W,?,PETERBOROUGH,ON,Ontario,K9J7Y5,44.28434,-78.33091
BUDG,BUDGET RENT A CAR,0WYT,SUSSEX CENTER,50 BURNHAMTHORPE RD W,?,MISSISSAUGA,ON,Ontario,L5B3C2,43.59185,-79.63762
RYAN,RYAN'S PET FOODS,2,450 APPLEBY LINE,450 APPLEBY LINE,?,BURLINGTON,ON,Ontario,L7L2Y2,43.36788,-79.75458
LCBO,LCBO,431,Woodroffe-Ottawa,1363 WOODROFFE AVENUE,COLLEGE SQUARE,OTTAWA,ON,Ontario,K2G1V7,45.350454,-75.762213
BUDG,BUDGET RENT A CAR,3707,STREETSVILLE,6385 MISSISSAUGA RD NORTH,?,MISSISSAUGA,ON,Ontario,L5N1A5,43.5973,-79.73479
MFLR,MAYFLOWER CANADA,5527,PETERBOROUGH,712 THE KINGSWAY,?,PETERBOROUGH,ON,Ontario,K9J6W6,44.27774,-78.33976
SHEL,SHELL CANADA,22HC,Sainte Rose QC,1280 BOUL DAGENAIS,?,SAINTE ROSE,QC,Quebec,H7L5E3,45.59827,-73.750567
PPDM,PHARMA PLUS DRUGMARTS,42,COMMERCE COURT,"199 BAY STREET, UNIT C186, P.O. BOX 197",?,TORONTO,ON,Ontario,M5L1E7,43.64761,-79.37968
BOST,BOSTON PIZZA INTERN'AL,452,Vaughan Mills,3255 RUTHERFORD ROAD,?,VAUGHAN,ON,Ontario,L4K5Y5,43.828861,-79.540981
TRUN,TOYS R US,3523,SUNRIDGE,2929 32ND AVE. N.E.,?,CALGARY,AB,Alberta,T1Y6J1,51.081,-113.99256
UNIS,AUTO PLUS AUTO PART PLUS,10,Burnaby Auto Parts,7665 EDMONDS ST.,?,BURNABY,BC,British Columbia,V3N1B6,49.22391,-122.94144
RN15,RO-NA HARDWARE,3708,"Poole Court,Val Caro",2957 POOLE COURT,?,VAL CARON,ON,Ontario,P3N1B2,46.609,-81.03166
DEMF,DAOUST & MICHEL FORGET,D198,CORNWALL,15 AV CORNWALL,?,MONT-ROYAL,QC,Quebec,H3P1M4,45.517418,-73.64262
TRUA,TOYS R US ALBERTA,2439,CARRY DRIVE PLAZA,135 CARRY DRIVE S.E.,?,MEDICINE HAT,AB,Alberta,T1B3M6,50.00517,-110.6488
RN16,RO-NA HOME CENTRE,6282,"Ave NW,Edmonton",9603-165TH AVENUE NW,?,EDMONTON,AB,Alberta,T5Z3X3,53.62583,-113.49056
TCPL,THE CHILDREN'S PLACE,3004,HILLCREST MALL,9350 YONGE STREET,?,RICHMOND HILL,ON,Ontario,L4C5G2,43.85463,-79.4362
BUDG,BUDGET RENT A CAR,749,HULL TRUCKS  QC,915 ST JOSEPH BLVD,?,HULL,QC,Quebec,J8Z1S8,45.46449,-75.73954
5,SAFEWAY,2297,CROWFOOT LIQUOR STR,65 CROWFOOT CRESCENT NW,?,CALGARY,AB,Alberta,T3G2L5,51.12554,-114.20019
COCS,CO-OP ATLANTIC,336,Colchester Co-Op,339 WILLOW STREET,COLCHESTER COUNTRY STORE CO-OP,TRURO,NS,Nova Scotia,B4N5A6,45.35359,-63.29357
PJCQ,JEAN COUTU,295,2355-5 AVENUE,"2355, 5E AVENUE",?,SHAWINIGAN-SUD,QC,Quebec,G9P1P4,46.519289,-72.743998
RN02,RONA LE RENOVATEUR,166,RONA 1325 RUE DU PON,1325 RUE DU PONT,?,SAINT-LAMBERT-DE-LAU,QC,Quebec,G0S2W0,46.59904,-71.19476
RN15,RO-NA HARDWARE,6214,TOTEM Calg. Edm. Tr.,4215 EDMONTON TRAIL N.E.,?,CALGARY,AB,Alberta,T2E3V6,51.09004,-114.05263
PEPL,PEOPLES JEWELLERS,5155,EASTGATE SQUARE,75 CENTENNIAL PKWY,?,STONEY CREEK,ON,Ontario,L8E2P2,43.230944,-79.76581
SBYA,SOBEYS INC,604,Ropewalk Lane,ROPEWALK LANE,?,ST. JOHN'S,NL,Newfoundland & Labrador,A1E4P1,47.555943,-52.736528
HARR,HARRIS & ROOME,00CT,"Charlottetown, PEI",13 WALKER DRIVE,?,CHARLOTTETOWN,PE,Prince Edward Island,C1A8S5,46.2545,-63.11097
13,NATIONAL TILDEN,C481,YVR AIRPORT S TERM,SOUTH TERMINAL-VANCOUVER AIRPORT,?,RICHMOND,BC,British Columbia,V7B1B8,49.18114,-123.16967
SHEL,SHELL CANADA,381G,Sydenham ON,?,?,?,ON,Ontario,?,44.410719,-76.596941
HBCR,HBC REWARDS,5113,HOME OUTFITTERS,245 STRASBURG ROAD,?,KITCHENER,ON,Ontario,N2E3W7,43.42435,-80.48911
33,CENTURY 21,3120,ASSOCIATES INC.,C1-5659 MCADAM ROAD,?,MISSISSAUGA,ON,Ontario,L4Z1N9,43.62545,-79.66273
SHEL,SHELL CANADA,070B,2291 Keele St,2291 KEELE STREET,?,TORONTO,ON,Ontario,M6M3Z9,43.70315,-79.47671
BOST,BOSTON PIZZA INTERN'AL,610,Ste-Julie,2051 BOUL NOBEL,?,SAINTE-JULIE,QC,Quebec,J3E1Z8,45.577815,-73.334807
DEMF,DAOUST & MICHEL FORGET,F056,367 Fiset  Sorel,"367, FISET",?,SOREL,QC,Quebec,J3P3R3,46.03706,-73.09487
LUMN,LUMEN,2,LUMEN SAINT-EUSTACHE,120 RUE DUBOIS,?,SAINT-EUSTACHE,QC,Quebec,J7P4W9,45.57176,-73.90513
BOST,BOSTON PIZZA INTERN'AL,14,PORT ALBERNI,3550 JOHNSTON ROAD,?,PORT ALBERNI,BC,British Columbia,V9Y7X1,49.265986,-124.786569
GMCL,GENERAL MOTORS,C786,STERLING TRK_TRL,762 MCDONALD STREET,?,REGINA,SK,Saskatchewan,S4N7M7,50.466648,-104.583745
IGAQ,IGA SUPERMARKETS,8552,BROSSARD,9105 BOUL TASCHEREAU,?,BROSSARD,QC,Quebec,J4Y3B8,45.437356,-73.474368
GMCL,GENERAL MOTORS,F081,HICKMAN MOT-87081,85 KENMOUNT ROAD,P.O. BOX 8340,ST. JOHN'S,NL,Newfoundland & Labrador,A1B3N7,47.55729,-52.75942
GMCL,GENERAL MOTORS,E657,HAMEL CH B G,"9455, BOULEVARD LACORDAIRE",?,SAINT-LEONARD,QC,Quebec,H1R3E8,45.60056,-73.61302
GMCL,GENERAL MOTORS,G735,MARLIN CH B G,"2145, RUE FRANK-CARREL",?,QUEBEC,QC,Quebec,G1N2G2,46.794911,-71.277078
GMCL,GENERAL MOTORS,A086,MASSULLO MOTORS,4493 JOYCE AVENUE,?,POWELL RIVER,BC,British Columbia,V8A3A8,49.837387,-124.520892
GMCL,GENERAL MOTORS,E819,DENIS BRETON CH B G,"364, RUE DUBOIS",?,SAINT-EUSTACHE,QC,Quebec,J7P4W9,45.575405,-73.893519
GMCL,GENERAL MOTORS,D892,AITKEN MOTORS CH B G,51 QUEENSWAY EAST,P.O. BOX 340,SIMCOE,ON,Ontario,N3Y4M5,42.84696,-80.30297
GMCL,GENERAL MOTORS,E386,DESJARDINS CH B G,190 BOUL. ST-JEAN-BAPTISTE,?,CHATEAUGUAY,QC,Quebec,J6K3B6,45.35152,-73.72005
LCBO,LCBO,351,2075 PARKEDALE,2075 PARKEDALE AVE,?,BROCKVILLE,ON,Ontario,K6V0B4,44.61146,-75.68825
SHEL,SHELL CANADA,3D24,1033A S Railway St,1033A SOUTH RAILWAY ST SE,?,MEDICINE HAT,AB,Alberta,T1A2W4,50.03,-110.65917
IGAQ,IGA SUPERMARKETS,557,VALD'OR,1177 8E RUE,?,VAL-D'OR,QC,Quebec,J9P1R1,48.102725,-77.7845
RN02,RONA LE RENOVATEUR,1055,RONA CTR DE RENOVATI,"140, 3IEME RUE O",?,SENNETERRE,QC,Quebec,J0Y2M0,48.39392,-77.24241
G276,GOODWRENCH SERVICE,E913,GRENIER CH B G,"1325, CARRE MASSON",?,TERREBONNE,QC,Quebec,J6W6J7,45.71754,-73.62211
FOOD,FOODLAND,9345,FOODLAND GANDER,151 AIRPORT BLVD,FRASER MALL,GANDER,NL,Newfoundland & Labrador,A1V1L7,48.9553,-54.60563
FOOD,FOODLAND,9173,GANDER BAY,?,?,?,NL,Newfoundland & Labrador,?,49.289018,-54.497888
SHEL,SHELL CANADA,A57A,St Donat QC,?,?,?,QC,Quebec,?,46.331141,-74.111817
SHEL,SHELL CANADA,3DE3,5005 PRKWD Blackfalds,5005 PARKWOOD ROAD,?,BLACKFALDS,AB,Alberta,T0M0J0,52.379892,-113.789419
SHEL,SHELL CANADA,3F82,369 E YELLOWHEAD S,?,?,?,BC,British Columbia,?,51.651334,-120.039513
NSLL,NOVA SCOTIA LIQUOR,2367,SPRINGHILL,21 MAIN STREET,?,SPRINGHILL,NS,Nova Scotia,B0M1X0,45.64859,-64.06003
UNIS,AUTO PLUS AUTO PART PLUS,8012,ABINORD LTEE,585 2E RUE EST,?,LA SARRE,QC,Quebec,J9Z2J6,48.79362,-79.19996
2,BMO BANK OF MONTREAL,265,BMO BANK OF MONTREAL,510 MAIN ST,?,WINCHESTER,ON,Ontario,K0C2K0,45.093032,-75.353841
GMCL,GENERAL MOTORS,C024,VIRDEN MAINLN MOT BR,CORNER ST. CLAIR ST & 8TH,?,BIRTLE,MB,Manitoba,R0M0C0,50.422172,-101.044887
GMCL,GENERAL MOTORS,C220,SPADONI MOTORS LTD.,MILL ROAD & HIGHWAY #17,P.O. BOX 100,TERRACE BAY,ON,Ontario,P0T2W0,48.792334,-87.089944
GMCL,GENERAL MOTORS,I269,UPPER CANADA MOTORS,CORNER OF HIGHWAY #2 & 31,P.O. BOX 680,MORRISBURG,ON,Ontario,K0C1X0,44.90118,-75.184101
GMCL,GENERAL MOTORS,B248,WHITECAP MOTORS,804 MAIN STREET S.W.,P.O. BOX 1488,SLAVE LAKE,AB,Alberta,T0G2A0,55.276879,-114.774989
GMCL,GENERAL MOTORS,C138,SOUTHWEST P B G,HIGHWAY #3,P.O. BOX 760,MELITA,MB,Manitoba,R0M1L0,49.266152,-100.986105
SHEL,SHELL CANADA,3D41,Shanty Bay,RR2 HIGHWAY 11,?,SHANTY BAY,ON,Ontario,L0L2L0,44.445701,-79.613555
SHEL,SHELL CANADA,7A5A,LA RONGE SK,111 BROWN STREET,at HWY 2,LA RONGE,SK,Saskatchewan,S0J1L0,55.100032,-105.30361
33,CENTURY 21,677,EXECUTIVES REALTY,300 GEORGE STREET,PO BOX 169,ENDERBY,BC,British Columbia,V0E1V0,50.54544,-119.14032
SHEL,SHELL CANADA,A635,179 12IEME RUE,?,?,?,QC,Quebec,?,46.700864,-75.450375
2,BMO BANK OF MONTREAL,669,BMO BANK OF MONTREAL,5102 50TH ST,?,VEGREVILLE,AB,Alberta,T9C1R2,53.495613,-112.052123
LCBO,LCBO,588,Verner,10442 HWY. 17,?,VERNER,ON,Ontario,P0H2M0,46.413583,-80.129064
RN15,RO-NA HARDWARE,3135,"Old Ferguson Rd,Hunt",369 OLD FERGUSON ROAD,?,HUNTSVILLE,ON,Ontario,P1H2K8,45.29744,-79.26346
PJCQ,JEAN COUTU,443,NEGUAC,759 RUE PRINCIPALE,?,NEGUAC,NB,New Brunswick,E9G1S2,47.24677,-65.07915
MBL4,GAGNON ET FRERES,LM20,LA MALBAIE,"308, ST-ITIENNE",?,LA MALBAIE,QC,Quebec,G5A1T8,47.65546,-70.15166
PHAR,PHARMASAVE,809,Neil's Harbour,247 NEW HAVEN ROAD,?,NEIL'S HARBOUR,NS,Nova Scotia,B0C1N0,46.81428,-60.31878
PJCQ,JEAN COUTU,214,60 RENE LEVESQUE,"95, BOULEVARD RENI-LIVESQUE EST",?,CHANDLER,QC,Quebec,G0C1K0,48.35128,-64.674135
SHEL,SHELL CANADA,040D,Kitmat BC,1065 LAHAKAS BLVD,?,KITIMAT,BC,British Columbia,V8C1E8,54.057817,-128.642785
RN02,RONA LE RENOVATEUR,783,1048 VACHON NORD,1048 BOUL VACHON NORD,?,SAINTE-MARIE,QC,Quebec,G6E1M5,46.45245,-71.03313
33,CENTURY 21,3140,UNITED REALTY INC.,40 FRONT STREET NORTH,?,CAMPBELLFORD,ON,Ontario,K0L1L0,44.30946,-77.79751
SHEL,SHELL CANADA,3F2C,FJ-BERTHIERVILLE,?,?,?,QC,Quebec,?,46.08993,-73.19937
LAWT,LAWTONS,376,TREPASSEY,80 NURSE ABERNETHY MED CTR,?,TREPASSEY,NL,Newfoundland & Labrador,A0A4B0,46.73612,-53.36028
SHEL,SHELL CANADA,A646,691334 ONTARIO INC.,1200 FRONT STREET,?,HEARST,ON,Ontario,P0L1N0,49.69028,-83.672588
BOST,BOSTON PIZZA INTERN'AL,313,Selkirk,1018 MANITOBA AVE,?,SELKIRK,MB,Manitoba,R1A4M2,50.157697,-96.902892
RXAL,REXALL DRUG STORES,6913,KAPUSKASING,30 CIRCLE STREET,?,KAPUSKASING,ON,Ontario,P5N1T7,49.41749,-82.4257
SHEL,SHELL CANADA,3A8D,200 600 2st SE,680 2 ST. SE,?,DRUMHELLER,AB,Alberta,T0J0Y0,51.458056,-112.702222
2,BMO BANK OF MONTREAL,332,BMO BANK OF MONTREAL,214 BOSWORTH ST,?,WYNYARD,SK,Saskatchewan,S0A4T0,51.765212,-104.17916
33,CENTURY 21,251,TISDALE AGENCIES,500 100 STREET,PO BOX 1540,TISDALE,SK,Saskatchewan,S0E1T0,52.8474,-104.04899
2,BMO BANK OF MONTREAL,404,BMO BANK OF MONTREAL,370 TRANSCANADA HWY,?,LADYSMITH,BC,British Columbia,V9G1T9,48.993511,-123.815284
SHEL,SHELL CANADA,1G9H,Messines QC,?,?,?,QC,Quebec,?,46.281005,-75.988903
2,BMO BANK OF MONTREAL,522,BMO BANK OF MONTREAL,101 KING ST E,?,GANANOQUE,ON,Ontario,K7G2V2,44.329572,-76.162472
LCBO,LCBO,107,Palmerston,440 MAIN STREET,?,PALMERSTON,ON,Ontario,N0G2P0,43.83321,-80.857577
CRST,CARSTAR AUTOMOTIVE CANADA,152,CARSTAR PORT PERRY,14100 HWY 12,HWY 12 & HWY 7A,PORT PERRY,ON,Ontario,L9L1B5,44.07904,-78.98318
CRST,CARSTAR AUTOMOTIVE CANADA,6007,CARSTAR BRIDGEWATER,350 VICTORIA ROAD,?,BRIDGEWATER,NS,Nova Scotia,B4V2N2,44.373041,-64.535679
2,BMO BANK OF MONTREAL,362,BMO BANK OF MONTREAL,5640 COWRIE & WHARF,?,SECHELT,BC,British Columbia,V0N3A0,49.472455,-123.755285
RN05,RONA L'EXPRESS,13,"Principale,St-Camill","137, RUE PRINCIPALE",?,SAINT-CAMILLE-DE-BELLECHASSE,QC,Quebec,G0R2S0,46.49525,-70.21169
2,BMO BANK OF MONTREAL,583,BMO BANK OF MONTREAL,5282 NAUVOO ROAD,?,WATFORD,ON,Ontario,N0M2S0,42.94721,-81.879879
LCBO,LCBO,460,Delta,39 MAIN STREET,?,DELTA,ON,Ontario,K0E1G0,44.610945,-76.121901
LCBO,LCBO,535,Coe Hill,8 CENTRE STREET,?,COE HILL,ON,Ontario,K0L1P0,44.862052,-77.840785
SHEL,SHELL CANADA,1C56,China Creek BC,?,?,?,BC,British Columbia,?,49.221533,-117.692157
PPDM,PHARMA PLUS DRUGMARTS,1883,VANCE'S,"55 JOSEPHINE STREET, P. O. BOX 1090",?,WINGHAM,ON,Ontario,N0G2W0,43.88037,-81.31745
HOME,HOMECARE BUILDING CENTRES,123,MURDOCK TIM-BR MART,185 ELIZABETH ST EAST,?,DURHAM,ON,Ontario,N0G1R0,44.17631,-80.81843
MMER,MONERIS MERCHANT ISSUANCE,1297,AUTOGARD,125 NORFINCH DR UNIT 204,?,NORTH YORK,ON,Ontario,M3N1W8,43.76263,-79.52911
17,GOODYEAR CANADA - EAST,1138,COAST TIRE & AUTO,"95, STE-THERESE STREET",?,DIEPPE,NB,New Brunswick,E1A1S8,46.0959,-64.75607
17,GOODYEAR CANADA - EAST,1074,COAST TIRE & AUTO,769 BOUL EVERARD H DAIGLE,?,GRAND FALLS,NB,New Brunswick,E3Z1C9,47.04467,-67.7611
SBWL,SOBEYS LIQUOR,5397,SBWL LOCAL COQUITLAM,541 CLARKE RD,?,COQUITLAM,BC,British Columbia,V3J3X4,49.260837,-122.890659
NATU,NCR USA,63N7,GRAND FORKS AIRPORT,?,?,?,NT,Northwest Territories,?,999,999
FOOD,FOODLAND,9340,FOODLAND SPRINGHILL,21 MAIN ST,?,SPRINGHILL,NS,Nova Scotia,B0M1X0,45.648839,-64.059905
KD42,ATLANTIC FENCE,1,ATLANTIC FENCE,?,?,?,AB,Alberta,?,999,999
LOWE,LOWES CANADA,3085,N. SUDBURY,1199 MARCUS DRIVE,?,SUDBURY,ON,Ontario,P3B4K6,46.501195,-80.946182
BEST,BEST WESTERN INTERNAT'NAL,C828,KATY TX,?,?,?,YT,Yukon,?,999,999
BW99,PLAZA PREMIUM LOUNGE ONT,5,PLAZA PREMIUM LOUNGE,?,?,?,MB,Manitoba,?,999,999
TIMQ,TIMBER MART QUEBEC,8206,QUINC A. POULIOT,"209, CHEMIN ST-LOUIS",?,BEAUHARNOIS,QC,Quebec,J6N2H8,45.310737,-73.878198
TIMW,TIM-BR MART WEST,5321,HAYDUK (TIM-BR MART),4736 - 50TH AVENUE,?,CALMAR,AB,Alberta,T0C0V0,53.26511,-113.80321
TIMW,TIM-BR MART WEST,5264,TERRACE TBM/IRLY,4425 KEITH AVE,?,TERRACE,BC,British Columbia,V8G1J7,54.512318,-128.580443
SHEL,SHELL CANADA,DD85,C80177,1477 BOUL LOUIS-FRECHETTE,?,NICOLET,QC,Quebec,J3T1M3,46.240492,-72.60032
HFDT,DOUBLE TREE,VCEM,VENICE NORTH,?,?,?,YT,Yukon,?,999,999
NLCA,NLC LIQUOR STORES,51,Centennial Square,6 Centennial Square,?,Mount Pearl,NL,Newfoundland & Labrador,A1N 1G5,47.518961,-52.805932
NLCA,NLC LIQUOR STORES,33,Topsail Road,470 Topsail Road,8750,St. John's,NL,Newfoundland & Labrador,A1E 2C3,47.53151,-52.75506
JR86,SHNIER DEALER NETWORK,621,PAINT SHOP S DILDO,?,?,?,NL,Newfoundland & Labrador,?,999,999
RN07,ACE,9847,ACE - MISTISSINI,152 AMISK ST,?,MISTISSINI,QC,Quebec,G0W1C0,50.416604,-73.871858
MMER,MONERIS MERCHANT ISSUANCE,116L,RAPID BROOK CAMPING,59 MICHAUD CH,?,DSL DE GRAND-SAULT/F,NB,New Brunswick,E3Z1L5,47.0228569,-67.7664936
MMER,MONERIS MERCHANT ISSUANCE,10ZF,LA CAMPAGNA ITALIAN,3330 STEELES AVE W,UNIT 30,CONCORD,ON,Ontario,L4K1A2,43.7740364,-79.531468
MMER,MONERIS MERCHANT ISSUANCE,0PY8,SHANGRI-LA,305 CHAROLAIS BOULEVARD,?,BRAMPTON,ON,Ontario,L6Y2R2,43.658787,-79.749661
MMER,MONERIS MERCHANT ISSUANCE,107C,MORPHEUS GRAPHICS &,324 WESTMINISTER AVE W.,?,PENTICTON,BC,British Columbia,V2A1K2,49.499187,-119.598419
MMER,MONERIS MERCHANT ISSUANCE,104E,A TEAM MOVERS,260 260 SHAWVILLE WAY SE APT. 103,?,CALGARY,AB,Alberta,T2Y3Z6,50.901423,-114.069611
MMER,MONERIS MERCHANT ISSUANCE,0ZX8,FORT MCMURRAY TAX &,9908 FRANKLIN AVENUE SUITE 5,?,FORT MCMURRAY,AB,Alberta,T9H2K5,56.727021,-111.379806
MMER,MONERIS MERCHANT ISSUANCE,0ZV3,CREATIONS LOBEL ENR,2015 DRUMMOND SUITE 652,2691761 CANADA INC,MONTREAL,QC,Quebec,H3G1W7,45.499609,-73.576085
MMER,MONERIS MERCHANT ISSUANCE,0ZNI,FIRST RESPONSE SAFET,4909 DONCASTER AVE,?,RED DEER,AB,Alberta,T4R2Z8,52.265341,-113.745523
MMER,MONERIS MERCHANT ISSUANCE,0ZLJ,ELECTRICAL CONTRACTO,17725 103 AVENUE,?,EDMONTON,AB,Alberta,T5S1N8,53.545306,-113.626553
MMER,MONERIS MERCHANT ISSUANCE,0ZHP,ACROPOLIS GREEK REST,10011 101 AVENUE,?,GRAND PRAIRIE,AB,Alberta,T0V0X9,55.171601,-118.795727
MMER,MONERIS MERCHANT ISSUANCE,0ZGX,CHINA PALACE,3825 46 ST,?,PONOKA,AB,Alberta,T4J1A5,52.6673,-113.57278
SHEL,SHELL CANADA,DD81,C80173,505 MAIN ST,RR 2,O'LEARY,PE,Prince Edward Island,C0B1V0,46.707058,-64.226302
KD27,MOUNTAIN VIEW DODGE,1,MOUNTAINVIEW DODGE,?,?,?,AB,Alberta,?,999,999
VT01,VOYAGES TRANSAT,B189,VOYAGES TRANSAT,117 BOUL DES PROMENADES,?,SAINT-BRUNO,QC,Quebec,J3V5K2,45.50407,-73.38142
CR82,SPARTAN INDUSTRIAL MARINE,26,HERCULES SLR,?,?,?,BC,British Columbia,?,999,999
JR14,DRYTAC CANADA INC.,3,ND GRAPHICS,1-55 INTERCHANGE WAY,?,CONCORD,ON,Ontario,L4K5W3,999,999
JR86,SHNIER DEALER NETWORK,612,PAINT SHOP 12,?,?,?,NL,Newfoundland & Labrador,?,999,999
JR86,SHNIER DEALER NETWORK,13,PATTI-LYNN INTERIORS,?,?,?,ON,Ontario,?,999,999
JR86,SHNIER DEALER NETWORK,617,PAINTSHOP BAYROBERTS,?,?,?,NL,Newfoundland & Labrador,?,999,999
FLDO,FOODLAND ONTARIO,6806,MARKDALE FOODLAND,217 TORONTO ST. SOUTH,?,MARKDALE,ON,Ontario,N0C1H0,44.314952,-80.641839
LCBO,LCBO,646,COLLEGE & BAY,777 BAY ST,?,TORONTO,ON,Ontario,M5G2C8,43.660615,-79.385707
PP73,PIZZA 73,20,6842 GAETZ AVENUE,6842 50 AVE,?,RED DEER,AB,Alberta,T4N4E3,52.29417,-113.81454
PP73,PIZZA 73,40,107 HADDOW CLOSE,107 HADDOW CLOSE NW,?,EDMONTON,AB,Alberta,T6R3W3,53.45856,-113.59143
PP73,PIZZA 73,1006,13578 FORT ROAD,PHONE AND ONLINE ORDERS,?,EDMONTON,AB,Alberta,T5A1C5,53.59807,-113.423113
HFGI,HILTON GARDEN INN,QROP,QUERETARO,?,?,?,NU,Nunavut,?,999,999
HFGI,HILTON GARDEN INN,FSDD,SIOUX FALLS DWNTWN,?,?,?,YT,Yukon,?,999,999
IGAQ,IGA SUPERMARKETS,8755,TRADITION,14 CH DE FAIRFAX,?,STANSTEAD,QC,Quebec,J0B3E0,45.023432,-72.086504
JR98,SMILE EFFECTS ALBERTA,1,SMILE EFFECTS,?,?,?,AB,Alberta,?,999,999
JR96,WESTERN MARINE COMPANY,?,?,?,?,?,?,Unknown,?,999,999
UNIS,AUTO PLUS AUTO PART PLUS,6040,WAKEFIELD SPERLING A,33406 SOUTH FRASERWAY,?,ABBOTSFORD,BC,British Columbia,V2S2B5,49.04961,-122.29884
LUBX,LUBEXX,3737,1712 ROSSER AVENUE,1712 ROSSER AVENUE,?,BRANDON,MB,Manitoba,R7A7T9,49.848333,-99.961878
TIMW,TIM-BR MART WEST,5115,BURNCO-FT. SASK.,8504 115 ST,?,FORT SASKATCHEWAN,AB,Alberta,T8L4N1,53.707085,-113.184437
BW34,METRO SELF STORAGE,14,METRO SELF STORAGE,?,?,?,NL,Newfoundland & Labrador,?,999,999
FLDO,FOODLAND ONTARIO,6391,SOUTHAMPTON,41 TURNER ST,?,SOUTHAMPTON,ON,Ontario,N0H2L0,44.50233459,-81.36317444
FLDO,FOODLAND ONTARIO,6774,HANOVER,236 10TH ST,?,HANOVER,ON,Ontario,N4N1N9,44.151797,-81.029955
FLDO,FOODLAND ONTARIO,6447,HALIBURTON,188 HIGHLAND ST.,PO BOX 600,HALIBURTON,ON,Ontario,K0M1S0,45.045942,-78.510395
FLDO,FOODLAND ONTARIO,6784,PALMERSTON,"150 MAIN STREET, PALMERSTON",?,PALMERSTON,ON,Ontario,N0G2P0,43.834248,-80.849174
SURO,SOBEYS ONT. URBAN FRESH,701,MOUNT PLEASANT,710 MOUNT PLEASANT RD,?,MOUNT PLEASANT,ON,Ontario,N0E1K0,43.706554,-79.38943
LUBX,LUBEXX,1065,1500 MARKET SQUARE,1500 MARKET SQUARE SE,?,AIRDRIE,AB,Alberta,T4K0K9,51.269971,-113.993713
LUBX,LUBEXX,1062,1814 RIDGEVIEW RD,1814 RIDGEVIEW RD,?,CRANBROOK,BC,British Columbia,V1C0C8,49.530167,-115.749103
JSLB,JUST LUBES,3581,581 KING ST E,581 KING ST E,?,OSHAWA,ON,Ontario,L1H1G3,43.90243,-78.842356
LAWT,LAWTONS,156,MELVILLE,15 SHOREHAM LANE,?,HALIFAX,NS,Nova Scotia,B3P2R3,44.62848,-63.61661
SURO,SOBEYS ONT. URBAN FRESH,?,?,?,?,?,?,Unknown,?,999,999
IOXG,IRVING,B606,RUSSELL FOOD IRV,791 ROUTE 776,?,GRAND MANAN,NB,New Brunswick,E5G3C4,44.736796,-66.758041
IOXG,IRVING,2332,GRAND PRE SVC CTR,11671 ROUTE 1,?,GRAND PRE,NS,Nova Scotia,B0P1M0,45.102867,-64.305271
IOBC,IRVING BULLOCH,C885,QUISPAMSIS CNV IRV,525 HAMPTON ROAD,?,QUISPAMSIS,NB,New Brunswick,E2G1C2,45.430814,-65.944331
IOBC,IRVING BULLOCH,1731,FAIRVILLE IRVING,10 MAIN STREET WEST,?,SAINT JOHN,NB,New Brunswick,E2M3N1,45.256821,-66.099993
IOCG,IRVING COUCHE-TARD,2117,HUNTER RIVER CK,19782 MALPEQUE RD,?,HUNTER RIVER,PE,Prince Edward Island,C0A1N0,46.355318,-63.349541
IOCC,IRVING COUCHE-TARD CSTORE,2079,ENFIELD CIRCLE K,"6757 HWY 2, EXIT 7",?,ENFIELD,NS,Nova Scotia,B2T1C8,44.926464,-63.53626
IOCG,IRVING COUCHE-TARD,2057,QUINPOOL RD CIRCLE K,6515 QUINPOOL RD,?,HALIFAX,NS,Nova Scotia,B3L1B4,44.643689,-63.603293
BW61,CANADA HEARING CENTRE LTD,154,HEARINGLIFE CANADA,?,?,?,AB,Alberta,?,999,999
JR79,MEGALITH MANAGEMENT LTD.,1,MEGALITH,?,?,?,ON,Ontario,?,999,999
CV01,CLUB VOYAGES,584,CV ALLIANCE,643 RUE SIMONEAU,?,THETFORD MINES,QC,Quebec,G6G1V1,46.10311,-71.29549
SHL3,SHELL CANADA,DD62,SOBEY'S - ST HUBERT,5175 BOUL COUSINEAU,?,SAINT-HUBERT,QC,Quebec,J3Y3K7,999,999
CR67,JO-VAN DISTRIBUTORS INC.,15,ACME DOORWAY TECH,2077 LAWRENCE AVE E,?,SCARBOROUGH,ON,Ontario,M1R2Z4,999,999
PPDM,PHARMA PLUS DRUGMARTS,4817,LOGAN WINNIPEG,1794 LOGAN AVENUE,?,WINNIPEG,MB,Manitoba,R3E1S6,49.92119,-97.194674
PPDM,PHARMA PLUS DRUGMARTS,4838,MARION & TACHE,123 MARION STREET,?,WINNIPEG,MB,Manitoba,R2H0T3,49.881665,-97.123128
RXAL,REXALL DRUG STORES,7133,MCKENZIE AVE,210-1595 MCKENZIE AVENUE,?,VICTORIA,BC,British Columbia,V8N1A4,48.468381,-123.333345
RXAL,REXALL DRUG STORES,7117,LORIMER RD,103-4360 LORIMER ROAD,?,WHISTLER,BC,British Columbia,V0N1B4,50.119795,-122.955669
RXAL,REXALL DRUG STORES,7206,50TH AVE VALLEYVIEW,4705-50TH AVENUE,?,VALLEYVIEW,AB,Alberta,T0H3N0,55.0687366,-117.2753803
JR65,TWIN PEAKS CONSTRUCTION,?,?,?,?,?,?,Unknown,?,999,999
BW20,Q LOYAL INC.,16,AESTHETICS COLLEGE,12-661 CHRISLEA RD,?,WOODBRIDGE,ON,Ontario,L4L0C4,999,999
JR60,ACTION CAR & TRUCK ACCESS,6,ACTION TRUCK,?,?,?,NL,Newfoundland & Labrador,?,999,999
JR40,STORAGE MART,30,STORAGEMART,?,?,?,ON,Ontario,?,999,999
SH8A,SHELL - BLUEWAVE,20D4,COLUMBIA FUELS,5433 ARGYLE STREET,?,PORT ALBERNI,BC,British Columbia,V9Y1T6,999,999
JR59,INDEPENDENT POOL GROUP,17,MERMAID POOLS,1600 LIVERPOOL CRT,?,OTTAWA,ON,Ontario,K1B4L2,999,999
SHL5,SHELL CANADA,DD07,SFJ-SHERWOOD LNG,50 PEMBINA RD,?,SHERWOOD PARK,AB,Alberta,T8H2G9,999,999
THPH,THRIFTY FOODS PHARMACY,9468,COQUITLAM,2662 AUSTIN AVENUE,?,COQUITLAM,BC,British Columbia,V3K6C4,49.248721,-122.817224
SAFL,SAFEWAY WINE AND SPIRITS,?,?,?,?,?,?,Unknown,?,999,999
JR59,INDEPENDENT POOL GROUP,?,?,?,?,?,?,Unknown,?,999,999
SBYW,SOBEYS WEST,3149,ROCKY MOUNTAIN HOUSE,4419 52ND AVENUE,?,ROCKY MOUNTAIN HOUSE,AB,Alberta,T4T1A3,52.377092,-114.919009
SBYW,SOBEYS WEST,5160,UNIVERSITY PARK,2231 EAST QUANCE STREET,?,REGINA,SK,Saskatchewan,S4V2Z3,50.443521,-104.551617
SBYW,SOBEYS WEST,5170,VARSITY COMMON,1550 8TH STREET,?,SASKATOON,SK,Saskatchewan,S7H0T3,52.114377,-106.632314
SBYW,SOBEYS WEST,3095,THICKWOOD,210 THICKWOOD BOULEVARD,?,FORT MCMURRAY,AB,Alberta,T9K1X9,56.734404,-111.426086
SWPH,SOBEYS WEST PHARMACIES,3194,LEWIS ESTATES,1030 WEBBER GREENS DRIVE NW,?,EDMONTON,AB,Alberta,T5T4K5,53.524413,-113.6695319
SWPH,SOBEYS WEST PHARMACIES,3105,GAETZ SOUTH,2110 50 AVENUE,?,RED DEER,AB,Alberta,T4R2K1,52.2356041,-113.8142289
PJCQ,JEAN COUTU,391,DALHOUSIE,396 WILLIAM STREET,?,DALHOUSIE,NB,New Brunswick,E8C2X2,48.066247,-66.373413
SHOP,YOURSHOPS.CA,1306,CROCS,?,?,?,ON,Ontario,?,999,999
SPLE,SIMPLE ENERGY,?,?,?,?,?,?,Unknown,?,999,999
SHL5,SHELL CANADA,DD46,JOHN ST-BARRY'S BAY,358 JOHN STREET,?,BARRY'S BAY,ON,Ontario,K0J1B0,999,999
KNTC,KBS KENT CARD,3,BOUCTOUCHE,183 IRVING BLVD.,?,BOUCTOUCHE,NB,New Brunswick,E4S3K3,999,999
KNTC,KBS KENT CARD,29,RUSSELL LAKE WEST,220 BAKER DRIVE,?,DARTMOUTH,NS,Nova Scotia,B2W6L4,999,999
5000,SAFEWAY CONVERSION,8847,SHAWNESSY VILLAGE,70 SHAWVILLE BOULEVARD SW,?,CALGARY,AB,Alberta,T2Y2Z3,50.905,-114.06646
5000,SAFEWAY CONVERSION,4855,KILDONAN CROSSING,1615 REGENT AVENUE WEST,?,WINNIPEG,MB,Manitoba,R2C5C6,49.89866,-97.06976
5000,SAFEWAY CONVERSION,4886,33RD STREET,302 33 STREET WEST,?,SASKATOON,SK,Saskatchewan,S7L0V4,52.14394,-106.67409
5000,SAFEWAY CONVERSION,4880,UNIVERSITY HEIGHTS,1860 MCORMOND DR,?,SASKATOON,SK,Saskatchewan,S7S0A5,52.149259,-106.565966
5000,SAFEWAY CONVERSION,4966,BROADWAY&COMMERCIAL,1780 EAST BROADWAY,?,VANCOUVER,BC,British Columbia,V5N1W3,49.26222,-123.06935
GENE,GENESIS ENTERPRISES INC,?,?,?,?,?,?,Unknown,?,999,999
BUDG,BUDGET RENT A CAR,0WGI,MIRAMICHI,95 DURICK ST,?,MIRAMICHI,NB,New Brunswick,E1V0G1,47.001869,-65.584066
SHEL,SHELL CANADA,DD48,14265 HWY 41,14265 HIGHWAY 41,?,CLOYNE,ON,Ontario,K0H1K0,44.820226,-77.186403
RMBC,RETAIL MEDIA GROUP,LEGB,Leger Marketing,?,?,?,QC,Quebec,?,999,999
HFHP,HAMPTON,MWOM,MIDDLETOWN,?,?,?,YT,Yukon,?,999,999
HFHT,HOME2SUITES,BNHT,NASHVILLE VANDERBILT,?,?,?,YT,Yukon,?,999,999
HFGV,HILTON GRAND VACATION,HNLB,HOKULANI WAIKIKI,?,?,?,YT,Yukon,?,999,999
HFHP,HAMPTON,AGST,THOMSON,?,?,?,YT,Yukon,?,999,999
HFDT,DOUBLE TREE,YTOC,TORONTO DOWNTOWN,?,?,?,ON,Ontario,?,999,999
RM99,SERVICE CORPORATION INT'L,189,FIRST MEMORIAL FS,?,?,?,BC,British Columbia,?,999,999
WRPL,WHIRLPOOL CANADA,439,JOWSEYS FURNITURE,4957 JOHNSTON ROAD,?,PORT ALBERNI,BC,British Columbia,V9Y5L8,49.258246,-124.811825
WRPL,WHIRLPOOL CANADA,425,WAGNERS APPLIANCES,108 -2374 BERING ROAD,?,WESTBANK,BC,British Columbia,V4T3J6,49.83506,-119.6243
WRPL,WHIRLPOOL CANADA,352,BONANZA FURNITURE,997465 HWY 11,?,NEW LISKEARD,ON,Ontario,P0J1P0,47.53343,-79.67405
WRPL,WHIRLPOOL CANADA,398,AIM APPLIANCE,35 ROBB BLVD UNIT #7,?,ORANGEVILLE,ON,Ontario,L9W3L1,43.90323,-80.11254
WRPL,WHIRLPOOL CANADA,213,RUFFS FURNITURE,60 MYRTLE AVE,?,YORKTON,SK,Saskatchewan,S3W1P7,51.21215,-102.46566
WRPL,WHIRLPOOL CANADA,404,BRANDSOURCE SERGE PR,500 PRINCIPALE EST,?,STE-AGATHE,QC,Quebec,J8C1K9,46.044752,-74.276292
WRPL,WHIRLPOOL CANADA,330,COHENS HOME FURNISH,110 COLUMBUS DRIVE,?,CARBONEAR,NL,Newfoundland & Labrador,A0A1T0,47.72803,-53.24711
RN15,RO-NA HARDWARE,3343,RONA CASHWAY ST.THOM,101 EDWARD ST,?,ST THOMAS,ON,Ontario,N5P1Y8,42.785874,-81.176897
SHL6,SHELL CANADA,DD3D,1640 RUE TRUDEL,1640 RUE TRUDEL,?,SHAWINIGAN,QC,Quebec,G9N0A2,999,999
WRPL,WHIRLPOOL CANADA,134,JEAN KOURY MEUBLE,25 AVE ARGENTEUIL,?,LACHUTE,QC,Quebec,J8H1X6,45.65386,-74.34056
WRPL,WHIRLPOOL CANADA,146,CLEMENT BOISVERT MEU,550 WHITEHEAD,?,TROIS-RIVIERES,QC,Quebec,G9A3M1,46.35715,-72.54667
WRPL,WHIRLPOOL CANADA,160,MEUBLES MATANE,807 DU PHARE EST,?,MATANE,QC,Quebec,G4W1A9,48.8514,-67.53891
WRPL,WHIRLPOOL CANADA,239,KENS FURNITURE IN W,3904B 56 ST,?,WETASKIWIN,AB,Alberta,T9A2B2,52.95907,-113.39045
WRPL,WHIRLPOOL CANADA,28,THE MAYTAG STORE LEA,939 EGLINTON AVE E STE 100,?,TORONTO,ON,Ontario,M4G4E8,43.71451,-79.35982
SHEL,SHELL CANADA,DCG9,WESTSHORE PARKWAY,2890 WESTSHORE PKWY,?,LANGFORD,BC,British Columbia,V9B0B2,48.45661,-123.53956
JR24,LM LTD. A/O LEISURESCAPES,3,MCKIE POOLS AND SPAS,?,?,?,ON,Ontario,?,999,999
GEWL,GERRIE ELECTRIC WHOLESAL,705,BURLINGTON PROJECTS,4104 SOUTH SERVICE RD,?,BURLINGTON,ON,Ontario,L7L4X5,43.36954,-79.78363
SHOP,YOURSHOPS.CA,1287,WEIGHT WATCHERS,?,?,?,ON,Ontario,?,999,999
RN15,RO-NA HARDWARE,3329,RONA MIDLAND,9320 93 HWY,?,MIDLAND,ON,Ontario,L4R4K4,44.74027,-79.91447
LMWB,MM AUTO-ISSUANCE VIA WEB,1083,STORE.AETV.COM,?,?,?,ON,Ontario,?,999,999
LMWB,MM AUTO-ISSUANCE VIA WEB,1028,LANDSEND.COM,?,?,?,ON,Ontario,?,999,999
LMWB,MM AUTO-ISSUANCE VIA WEB,1094,APPLE.COM,?,?,?,ON,Ontario,?,999,999
33,CENTURY 21,3343,TIMES SQUARE REALTY,308-550 HIGHWAY 7 E,?,RICHMOND HILL,ON,Ontario,L4B3Z4,43.84457,-79.38277
SHOP,YOURSHOPS.CA,1276,ORIGINS,?,?,?,ON,Ontario,?,999,999
JR15,THE AUTHENTIC TSHIRT COMP,?,?,?,?,?,?,Unknown,?,999,999
SHL6,SHELL CANADA,DD32,123 FOORD STREET,123 FOORD ST,?,STELLARTON,NS,Nova Scotia,B0K1S0,999,999
SHL6,SHELL CANADA,3.00E+85,150 BRANT DR,150 BRANT DR,?,CAMPBELL RIVER,BC,British Columbia,V9H1V8,999,999
LCBO,LCBO,391,180 GREEN LANE EAST,180 GREEN LANE EAST,?,EAST GWILLIMBURY,ON,Ontario,L9N0C9,44.073388,-79.483607
NATU,NCR USA,01FB,SAINT LOUIS,?,?,?,NT,Northwest Territories,?,999,999
BW95,SECURTEK MONITORING SOLUT,36,CITY LOCK SECURITY,?,?,?,SK,Saskatchewan,?,999,999
SHOP,YOURSHOPS.CA,1270,BED BATH & BEYOND,?,?,?,ON,Ontario,?,999,999
IOMG,IRVING,J217,PILLEYS ISLAND IRV,84 MAIN ST,?,PILLEYS ISLAND,NL,Newfoundland & Labrador,A0J1M0,49.49716,-56.06971
IGAQ,IGA SUPERMARKETS,8100,IGA EXTRA CREVIER,180 BOUL BRIEN,?,REPENTIGNY,QC,Quebec,J6A7E9,45.74739,-73.46219
IGAQ,IGA SUPERMARKETS,8349,IGA EXTRA PAQUETTE,3925 BOUL DES FORGES,?,TROIS-RIVIERES,QC,Quebec,G8Y1V9,46.35533,-72.58491
IGAQ,IGA SUPERMARKETS,8554,IGA JOSE LEBLANC,268 9E AV,?,FERME-NEUVE,QC,Quebec,J0W1C0,46.70175,-75.45274
RN15,RO-NA HARDWARE,9914,RONA - CASSELMAN,8 RUE RACINE,?,CASSELMAN,ON,Ontario,K0A1M0,45.30709,-75.07982
IGAQ,IGA SUPERMARKETS,542,IGA EXTRA LAMOUREUX,3765 CH D'OKA,?,SAINT-JOSEPH-DU-LAC,QC,Quebec,J0N1M0,45.51328,-73.97656
BW88,SWIFTPLUMBING& WATER HEAT,2,SWIFT PLUMBING,?,?,?,BC,British Columbia,?,999,999
IGAQ,IGA SUPERMARKETS,428,IGA MARCHE BELLEVUE,560 BOUL DES BOIS-FRANCS SUD,?,VICTORIAVILLE,QC,Quebec,G6P5X4,46.049664,-71.93524
IGAQ,IGA SUPERMARKETS,478,IGA COOP,188 ROUTE 204,?,SAINTE-JUSTINE,QC,Quebec,G0R1Y0,46.404679,-70.355183
BW61,CANADA HEARING CENTRE LTD,143,LISTENUP! CANADA,?,?,?,ON,Ontario,?,999,999
BW61,CANADA HEARING CENTRE LTD,112,LISTENUP! CANADA,?,?,?,ON,Ontario,?,999,999
BW61,CANADA HEARING CENTRE LTD,39,HEARINGLIFE CANADA,?,?,?,BC,British Columbia,?,999,999
IOMC,IRVING C-STORE,K513,SANDRINGHAM GAS BAR,138 MAIN STREET,?,SANDRINGHAM,NL,Newfoundland & Labrador,A0G3Y0,49.24351,-55.0592
20,FOUNTAIN TIRE,202,FOUNTAIN TIRE F202,377 HENDERSON DRIVE,?,REGINA,SK,Saskatchewan,S4N5W8,50.4694,-104.56151
RN16,RO-NA HOME CENTRE,5511,"COLOSSUS DR,WOODBRID",67 COLOSSUS DR,?,WOODBRIDGE,ON,Ontario,L4L9J8,43.7868,-79.54309
SHL5,SHELL CANADA,DD12,"2 RUE BRIDGE, RT138",2 RUE BRIDGE,?,ORMSTOWN,QC,Quebec,J0S1K0,999,999
SHL6,SHELL CANADA,3.00E+54,1292 DUPONT ST,1292 DUPONT ST,?,TORONTO,ON,Ontario,M6H2A4,999,999
19,FOUNTAIN TIRE,304,FOUNTAIN TIRE F304,123 FORT STREET,?,WINNIPEG,MB,Manitoba,R3C1C6,49.88999,-97.13695
IOMC,IRVING C-STORE,2332,GRAND PRE SVC CTR,11671 1 HWY,?,GRAND PRE,NS,Nova Scotia,B0P1M0,45.102811,-64.305337
IOMG,IRVING,L701,DUNDAS TOWING SVC,1351 CUMBERLAND HILL,?,CARDIGAN,PE,Prince Edward Island,C0A1G0,46.24516,-62.62345
NAVY,OLD NAVY,5457,OSHAWA CENTRE,419 KING STREET WEST,?,OSHAWA,ON,Ontario,L1J2K5,43.89392,-78.87921
BMOL,BMO LIFE,ALLC,ALL CHANNELS,?,?,?,ON,Ontario,?,999,999
ELNK,EASTLINK,6,COUNTY FAIR MALL,9256 COMMERCIAL STREET,?,NEW MINAS,NS,Nova Scotia,B4N3G2,45.06788,-64.444
IGAQ,IGA SUPERMARKETS,25,COMPLEXE DESJARDINS,?,?,?,QC,Quebec,?,45.507836,-73.565412
IGAQ,IGA SUPERMARKETS,205,HUDSON,?,?,?,QC,Quebec,?,45.459491,-74.143686
IGAQ,IGA SUPERMARKETS,577,"LEVIS,53 KENNEDY",?,?,?,QC,Quebec,?,46.794861,-71.175535
BW16,BAYSHORE HEALTHCARE LTD.,6,BAYSHORE HOME HEALTH,?,?,?,ON,Ontario,?,999,999
IOMG,IRVING,5711,FREDERICTON JCT IRV,207 SUNBURY DRIVE,?,FREDERICTON JUNCTION,NB,New Brunswick,E5L1R7,45.66349,-66.6148
IOMC,IRVING C-STORE,603,MARGAREE CENTRE IRV,231 GRANTON CROSSROADS,?,MARGAREE CENTRE,NS,Nova Scotia,B0E1Z0,46.34739,-60.99908
IOMG,IRVING,403,NEWCOMBVILLE GAS BAR,"3916 NEWCOMBVILLE, RR4",?,BRIDGEWATER,NS,Nova Scotia,B4V2W4,44.39669,-64.68287
IOMC,IRVING C-STORE,7217,PILLEYS ISLAND IRV,84 MAIN ST,?,PILLEYS ISLAND,NL,Newfoundland & Labrador,A0J1M0,49.49716,-56.06971
IONG,IRVING NEEDS FUEL,6121,NEEDS MOUNT ALBION,9557 HWY 1,?,CHARLOTTETOWN,PE,Prince Edward Island,C1A7J6,46.19349,-62.95705
IOMG,IRVING,7217,PILLEYS ISLAND IRV,84 MAIN ST,?,PILLEYS ISLAND,NL,Newfoundland & Labrador,A0J1M0,49.49716,-56.06971
IOBG,IRVING,5143,BATHURST MAINSTOP,310 VANIER BLVD,?,BATHURST,NB,New Brunswick,E2A3M9,47.64059,-65.68176
SBYP,SOBEYS ATL. IN-STORE PHAR,562,SAINT JOHN,3701 WESTFIELD ROAD,?,SAINT JOHN,NB,New Brunswick,E5K4V3,45.28946,-66.19373
SBYP,SOBEYS ATL. IN-STORE PHAR,348,MONCTON MALL,1380 Mountain Road,MONCTON MALL,Moncton,NB,New Brunswick,E1C2T8,46.11134,-64.83276
SBYP,SOBEYS ATL. IN-STORE PHAR,758,SOBEYS RUSSELL LAKE,268 BAKER DRIVE,?,RUSSELL LAKE,NS,Nova Scotia,B2W6L4,44.66852,-63.53157
BEST,BEST WESTERN INTERNAT'NAL,C642,CLINT TX,?,?,?,YT,Yukon,?,999,999
17,GOODYEAR CANADA - EAST,1037,EXCELLENCE PNEUS DDO,"3614, BOUL. ST-JEAN",?,DOLLARD-DES-ORMEAUX,QC,Quebec,H9G1X1,45.47321,-73.83514
19,FOUNTAIN TIRE,416,FOUNTAIN TIRE F416,100 CRAVEN CRESCENT,?,NEW LISKEARD,ON,Ontario,P0J1P9,47.513017,-79.695302
SHL6,SHELL CANADA,DD0D,1844404 ONTARIO INC.,2 MATTHEW STREET,?,MARMORA,ON,Ontario,K0K2M0,999,999
BMOB,BMO AIR MILES BONUS CARD,12,BMO Bonus Card,?,?,?,ON,Ontario,?,999,999
16,GOODYEAR CANADA - CENTRAL,2180,ROYAL TIRE & SERVICE,100 CRAVEN CRESCENT,?,NEW LISKEARD,ON,Ontario,P0J1P0,47.51314,-79.6953
SHL5,SHELL CANADA,3F8H,301 THOROLD ROAD,301 THOROLD RD,?,WELLAND,ON,Ontario,L3C6H5,999,999
17,GOODYEAR CANADA - EAST,254,PNEUS ABITIBI #254,3078 ROUTE 111 EST,CP 184 SUCC BUREAU-CHEF,AMOS,QC,Quebec,J9T3A6,48.57182,-78.11713
33,CENTURY 21,6076,PRIVILEGE,100-731 RUE DE LA COMMUNE O,?,MONTREAL,QC,Quebec,H3C1X7,45.496652,-73.553113
SHEL,SHELL CANADA,DD02,CHEMIN DE CHAMBLY,1499 CH DE CHAMBLY,?,CARIGNAN,QC,Quebec,J3L0J6,45.464796,-73.342474
SPLS,STAPLES,225,BARRHAVEN,101 MARKETPLACE AVENUE,?,NEPEAN,ON,Ontario,K2J5G5,45.27107,-75.73962
SPLS,STAPLES,289,SHERBROOKE OUEST,5157 RUE SHERBROOKE OUEST,?,MONTREAL,QC,Quebec,H4A1T5,45.47583,-73.60724
SPLS,STAPLES,242,MONCTON-MAIN STREET,233 MAIN STREET,?,MONCTON,NB,New Brunswick,E1C1B8,46.09236,-64.76664
SPLS,STAPLES,131,OTTAWA CORE,403 BANK STREET,?,OTTAWA,ON,Ontario,K2P1Y6,45.41314,-75.6943
SPLS,STAPLES,167,YORKTON,210 HAMILTON ROAD,?,YORKTON,SK,Saskatchewan,S3N4E5,51.20643,-102.45105
SPLS,STAPLES,222,LIMERIDGE,970 UPPER WENTWORTH ST,?,HAMILTON,ON,Ontario,L9A4V8,43.2186,-79.86412
SPLS,STAPLES,310,COLLINGWOOD,"15 BALSAM STREET,",UNIT # 3,COLLINGWOOD,ON,Ontario,L9Y5H6,44.50335,-80.23482
SPLS,STAPLES,434,ST.JOHN'S-KENMOUNT,65 KELSEY DRIVE,?,ST. JOHN'S,NL,Newfoundland & Labrador,A1B5C8,47.55622,-52.7821
33,CENTURY 21,726,BREC.CA,203-660 2 ST SE,?,MEDICINE HAT,AB,Alberta,T1A0C9,50.04111,-110.67532
33,CENTURY 21,3164,ANNAPOLIS VALLEY,32 CORNWALLIS STREET,?,KENTVILLE,NS,Nova Scotia,B4N2E1,45.0779,-64.49432
33,CENTURY 21,3290,NETWORK REALTY LTD.,288 BRIDGE STREET,?,PORT STANLEY,ON,Ontario,N5L1C3,42.66579,-81.21227
MART,MARLIN TRAVEL,752,MARLIN TRAVEL,SUNRIDGE MALL,2525 36TH STREET N.E.,CALGARY,AB,Alberta,T1Y5T4,51.07399,-113.98293
MART,MARLIN TRAVEL,659,MARLIN TRAVEL,MARKVILLE SHOPPING CENTRE,5000 HIGHWAY 7,MARKHAM,ON,Ontario,L3R4M9,43.86639,-79.28885
TP01,TRAVELPLUS,1171,PROGRESS TRAVEL,516 KINGSTON ROAD WEST,?,AJAX,ON,Ontario,L1T3A3,43.85564,-79.05092
MART,MARLIN TRAVEL,1227,MARLIN TRAVEL,22 PINEBUSH ROAD,INSIDE WALMART,CAMBRIDGE,ON,Ontario,N1R8K5,43.41051,-80.32654
MART,MARLIN TRAVEL,1544,MARLIN TRAVEL,2468 BEACON AVE,?,SIDNEY,BC,British Columbia,V8L1X2,48.64899,-123.39756
CV01,CLUB VOYAGES,530,CLUB VOYAGES ELYSEE,3272 BD. NEILSON,?,STE-FOY,QC,Quebec,G1W2V8,46.75721,-71.30988
17,GOODYEAR CANADA - EAST,1240,EXPERTS SUR ROUES,"372, BOUL MALONEY OUEST",?,POINTE-GATINEAU,QC,Quebec,J8P1E5,45.48371,-75.66234
16,GOODYEAR CANADA - CENTRAL,2091,TOP NOTCH MOTORS INC,264 QUEEN STREET EAST,?,BRAMPTON,ON,Ontario,L6V1B9,43.69767,-79.74738
17,GOODYEAR CANADA - EAST,1125,CITY TIRE & AUTO,"41, KENMOUNT ROAD",?,ST-JOHN'S,NL,Newfoundland & Labrador,A1B1W1,47.55928,-52.75128
TRUN,TOYS R US,2436,PARK & TILFORD,333 BROOKSBANK AVENUE,?,N. VANCOUVER,BC,British Columbia,V7J3S8,49.30882,-123.04046
SBYA,SOBEYS INC,788,SOBEYS FIRST LAKE DR,70 FIRST LAKE DR,?,LOWER SACKVILLE,NS,Nova Scotia,B4C3E4,44.77782,-63.66917
BUDG,BUDGET RENT A CAR,0WGQ,BELLS CORNER,150 ROBERTSON ROAD,?,OTTAWA,ON,Ontario,K2H9S1,45.32047,-75.83684
IGAQ,IGA SUPERMARKETS,8267,COOP DE RIMOUSKI,395 AV SIROIS,?,RIMOUSKI,QC,Quebec,G5L8R2,48.436261,-68.524596
RN15,RO-NA HARDWARE,6238,RONA HC STONY PLAIN,18445 STONY PLAIN RD NW,?,EDMONTON,AB,Alberta,T5S2X6,53.54106,-113.64113
BUDG,BUDGET RENT A CAR,0X1A,HOTEL CLARION,3125 BOUL HOCHELAGA,?,QUEBEC,QC,Quebec,G1W2P9,46.76349,-71.30197
MCHL,MICHAELS,3402,BRANTVIEW PLAZA,1881 FAIRVIEW ST,?,BURLINGTON,ON,Ontario,L7S2K4,43.33493,-79.81404
RN04,BOTANIX,233,"10, COTE ST-JACQUES",10 COTE SAINT-JACQUES,?,RIVIERE-DU-LOUP,QC,Quebec,G5R2N8,47.84484,-69.53829
VIBL,VIVID BLUE,1038,CROWFOOTLIQUOR,218-177 COUNTRY HILLS BLVD NW,?,CALGARY,AB,Alberta,T3K5M6,51.14942,-114.07227
2,BMO BANK OF MONTREAL,112,BMO BANK OF MONTREAL,33 AVENUE DONEGANI,?,POINTE-CLAIRE,QC,Quebec,H9R2V7,45.450279,-73.784994
HBCR,HBC REWARDS,5185,HOME OUTFITTERS,1085 WOOLRIDGE STREET,?,COQUITLAM,BC,British Columbia,V3K7A9,49.23339,-122.86211
BEST,BEST WESTERN INTERNAT'NAL,C274,WATERLOO ON,50 Benjamin Rd E,?,Waterloo,ON,Ontario,N2V2J9,43.50437,-80.55718
HISB,STAYBRIDGE SUITES,YZSB,OAKVILLE,2511 WYECROFT ROAD,?,OAKVILLE,ON,Ontario,L6L6P8,43.40834,-79.73474
NSLC,NOVA SCOTIA LIQUOR,2418,DOMINION,119 COMMERCIAL STREET,PO BOX 3206,DOMINION,NS,Nova Scotia,B1G1B3,46.21021,-60.02471
SHEL,SHELL CANADA,2106,9804 153 Av NW,9804 153 AVENUE,?,EDMONTON,AB,Alberta,T5X5V2,53.614406,-113.493722
LCBO,LCBO,165,Mall Rd Hamilton,76 MALL ROAD,?,HAMILTON,ON,Ontario,L8V4X6,43.220993,-79.860912
BOST,BOSTON PIZZA INTERN'AL,179,Jasper Ave Edmonton,10620 JASPER AVENUE,?,EDMONTON,AB,Alberta,T5J2A3,53.540973,-113.503203
SHEL,SHELL CANADA,0CAE,2650 Brimley Rd,2650 BRIMLEY ROAD,?,SCARBOROUGH,ON,Ontario,M1V1K2,43.805782,-79.277693
DEMF,DAOUST & MICHEL FORGET,D155,NET DAOUST STE-JULIE,2033 PRINCIPALE,?,STE-JULIE,QC,Quebec,J3E1W1,45.59061,-73.34917
5,SAFEWAY,862,WETASKIWIN,3901 56 STREET,?,WETASKIWIN,AB,Alberta,T9A2B1,52.95864,-113.38998
BOST,BOSTON PIZZA INTERN'AL,73,King Cross Mall,7488 KING GEORGE HWY,KING'S CROSS MALL,SURREY,BC,British Columbia,V3W0H9,49.138747,-122.845496
PEPL,PEOPLES JEWELLERS,5002,NORTHGATE SQUARE,1500 FISHER STREET,?,NORTH BAY,ON,Ontario,P1B2H3,46.312971,-79.443124
BOST,BOSTON PIZZA INTERN'AL,416,Cobourg,1111 ELGIN STREET,?,COBOURG,ON,Ontario,K9A5H7,43.970893,-78.200632
LCBO,LCBO,145,Bradford,160 HOLLAND STREET WEST,?,BRADFORD,ON,Ontario,L3Z2A9,44.113002,-79.570211
HARR,HARRIS & ROOME,00MT,"Moncton, NB",385 EDINBURGH DRIVE,?,MONCTON,NB,New Brunswick,E1E2L2,46.08222,-64.83747
TCPL,THE CHILDREN'S PLACE,3232,STONE ROAD MALL,435 STONE ROAD,?,GUELPH,ON,Ontario,N1G2X6,43.51877,-80.2373
2,BMO BANK OF MONTREAL,454,BMO BANK OF MONTREAL,991 BOUL DU SEMINAIRE NORD,?,ST-JEAN-SUR-RICHELIEU,QC,Quebec,J3A1K1,45.33566,-73.267804
RN01,RONA LE QUINCAILLIER,175,25 JOHN-SAVAGE BROMO,25 RUE JOHN-SAVAGE,?,BROMONT,QC,Quebec,J2L0A5,45.31813,-72.65093
SHEL,SHELL CANADA,658,1610 Keele St,1610 KEELE STREET,?,TORONTO,ON,Ontario,M6M3V9,43.68249,-79.47188
BOST,BOSTON PIZZA INTERN'AL,27,Alaska Ave,1525 ALASKA AVE,?,DAWSON CREEK,BC,British Columbia,V1G1Z8,55.764085,-120.246228
TRUN,TOYS R US,2437,180 FITCH STREET,180 FITCH STREET,?,WELLAND,ON,Ontario,L3C4V8,42.9946,-79.26307
13,NATIONAL TILDEN,L2BW,RED DEER,2319 TAYLOR DRIVE,?,RED DEER,AB,Alberta,T4R2R1,52.23963,-113.81995
BOST,BOSTON PIZZA INTERN'AL,436,MIDLAND ONT,16835 HERITAGE DRIVE,?,MIDLAND,ON,Ontario,L4R4K3,44.72944,-79.873519
SHEL,SHELL CANADA,1415,476 Notre Dame Av,476 NOTRE DAME AVENUE,?,SUDBURY,ON,Ontario,P3C5K8,46.504167,-80.986389
HICR,CROWNE PLAZA,QMMS,MONCTON,1005 MAIN STREET,?,MONCTON,NB,New Brunswick,E1C1G9,46.08688,-64.78362
BUDG,BUDGET RENT A CAR,0WEK,T VICTORIAVILLE,434 RUE NOTRE-DAME O,?,VICTORIAVILLE,QC,Quebec,G6P1S8,46.05888,-71.96896
LCBO,LCBO,154,1089 MIDLAND AVENUE,1089 MIDLAND AVENUE,?,KINGSTON,ON,Ontario,K7P2S2,44.26282,-76.57418
PEPL,PEOPLES JEWELLERS,5290,KINGSWAY GARDEN MALL,109 ST & PRINCESS ELIZABETH,?,EDMONTON,AB,Alberta,T5G3A6,53.56217,-113.50572
2,BMO BANK OF MONTREAL,318,BMO BANK OF MONTREAL,9920 FRANKLIN AVE,?,FORT MCMURRAY,AB,Alberta,T9H2K5,56.727726,-111.381397
GLOB,GLOBAL PET FOODS,86,AJAX,314 HARWOOD AVE SOUTH,?,AJAX,ON,Ontario,L1S2J1,43.84516,-79.01907
13,NATIONAL TILDEN,C377,OTTAWA ARPT,1003 AIRPORT PARKWAY PRIVATE,?,OTTAWA,ON,Ontario,K1V2C1,45.32348,-75.66259
SHEL,SHELL CANADA,3832,Waubaushene ON,14165 HWY 12,?,WAUBAUSHENE,ON,Ontario,L0K2C0,44.73259,-79.732096
SBYA,SOBEYS INC,849,Regent St.,407 REGENT STREET,?,FREDERICTON,NB,New Brunswick,E3B4X6,45.954499,-66.64463
HBCR,HBC REWARDS,5181,HOME OUTFITTERS,201 CHAIN LAKE DRIVE,?,HALIFAX,NS,Nova Scotia,B3S1C8,44.65018,-63.67578
SBYA,SOBEYS INC,590,Long Pond,350 CONCEPTION BAY HIGHWAY,?,LONG POND,NL,Newfoundland & Labrador,A1W3J1,47.520616,-52.947632
HIEX,HOLIDAY INN EXPRESS,XHSR,MEDICINE HAT,9 STRACHAN BAY S.E.,?,MEDICINE HAT,AB,Alberta,T1B4Y2,49.99738,-110.64376
LUMN,LUMEN,12,LUMEN SHERBROOKE,4350 RUE OUIMET,?,SHERBROOKE,QC,Quebec,J1L2A8,45.39346,-71.97015
BEST,BEST WESTERN INTERNAT'NAL,C234,HALIFAX NS,20 St Margaret's Bay Rd,?,Halifax,NS,Nova Scotia,B3N1J4,44.64031,-63.62439
PEPL,PEOPLES JEWELLERS,5162,ST. LAURENT SHOPPING,1236 ST. LAURENT BLVD.,?,OTTAWA,ON,Ontario,K1K3B8,45.423046,-75.636887
SHEL,SHELL CANADA,1H60,529 2nd Ave Se,529 2 AVENUE SE,?,AIRDRIE,AB,Alberta,T4B1S2,51.289722,-114.001944
LCBO,LCBO,126,Tilbury,34 QUEEN STREET SOUTH,?,TILBURY,ON,Ontario,N0P2L0,42.257548,-82.432182
GLOB,GLOBAL PET FOODS,135,MISSISSAUGA,6590 MEADOWVALE TOWN CENTRE CIRCLE,?,MISSISSAUGA,ON,Ontario,L5N2R5,43.58062,-79.75966
13,NATIONAL TILDEN,L214,CAMPBELL RIVER,1995 ISLAND HIGHWAY,?,CAMPBELL RIVER,BC,British Columbia,V9W2G3,50.03299,-125.27298
2,BMO BANK OF MONTREAL,126,BMO BANK OF MONTREAL,29 DINEEN DRIVE,?,FREDERICTON,NB,New Brunswick,E3B5A3,45.946816,-66.643779
LCBO,LCBO,288,CAPLAN AVENUE BARRIE,37 CHAPLAN AVE,?,BARRIE,ON,Ontario,L4N6K3,44.33739,-79.69088
SHEL,SHELL CANADA,3F56,630 COLBORNE ST,630 COLBORNE STREET,?,BRANTFORD,ON,Ontario,N3S3P8,43.14053,-80.24075
CRST,CARSTAR AUTOMOTIVE CANADA,26,CARSTAR CAMBRIDGE,35 LINGARD ROAD,AT CAN-AMERA PKWY,CAMBRIDGE,ON,Ontario,N1T2H4,43.40717,-80.28774
2,BMO BANK OF MONTREAL,715,BMO BANK OF MONTREAL,3695 4TH AVE W,?,VANCOUVER,BC,British Columbia,V6R1P2,49.268736,-123.185662
RN15,RO-NA HARDWARE,812,"4903,50 Ave ColdLake",4903 50 AVE.,?,COLD LAKE,AB,Alberta,T9M1P4,54.41325,-110.20424
13,NATIONAL TILDEN,L235,"SAINTE - CATHERINE,",3705 ROUTE 132,?,SAINTE-CATHERINE,QC,Quebec,J0L1E0,45.4005,-73.57628
PAYL,PAYLESS,8129,380 Trans Canada Hwy,380 TRANS CANADA HIGHWAY,?,DUNCAN,BC,British Columbia,V9L3R4,48.778637,-123.698649
APAT,METRO,275,FALLINGBROOK,1675 TENTH LINE ROAD,FALLINGBROOK MALL,ORLEANS,ON,Ontario,K1E3P6,45.468002,-75.492203
FOOD,FOODLAND,9225,KENTVILLE,311 CORNWALLIS ST,?,KENTVILLE,NS,Nova Scotia,B4N1A9,45.086399,-64.495284
2,BMO BANK OF MONTREAL,588,BMO BANK OF MONTREAL,3100 HOWARD AVE,?,WINDSOR,ON,Ontario,N8X3Y8,42.272955,-83.004286
RN15,RO-NA HARDWARE,4507,60  O'Leary Ave,60 O'LEARY AVE,?,ST. JOHN'S,NL,Newfoundland & Labrador,A1B4B5,47.55943,-52.76377
SHEL,SHELL CANADA,0F4C,745 De L'Estre,745 DE LESTRE,?,STE-FOY,QC,Quebec,G1X2L9,46.781175,-71.310884
BOST,BOSTON PIZZA INTERN'AL,185,"Terwilleger, Edm",378 BULYEA RD,?,EDMONTON,AB,Alberta,T6R2B3,53.475706,-113.573994
BUDG,BUDGET RENT A CAR,0WJW,T DORVAL,955 BOUL MONTREAL-TORONTO,?,DORVAL,QC,Quebec,H9S1A2,45.45018,-73.74866
HINN,HOLIDAY INN,GUCA,GUELPH,601 SCOTTSDALE DR.,?,GUELPH,ON,Ontario,N1G3E7,43.51596,-80.24013
SHEL,SHELL CANADA,096C,390 Jean Talon O,390 JEAN TALON OUEST,AND AVENUE DU PARK,MONTREAL,QC,Quebec,H3N1P8,45.529972,-73.622251
BOST,BOSTON PIZZA INTERN'AL,111,"North Pointe, Calgary",388 COUNTRY HILLS BLVD,?,CALGARY,AB,Alberta,T3K5J6,51.154286,-114.064134
SASE,SASKENERGY & NETWORK MEM,9078,MR. ROOTER,219-918 ALBERT ST,?,REGINA,SK,Saskatchewan,S4R2P7,50.46423,-104.61833
2,BMO BANK OF MONTREAL,221,BMO BANK OF MONTREAL,518 DANFORTH AVE,?,TORONTO,ON,Ontario,M4K1P6,43.678304,-79.348535
PJCQ,JEAN COUTU,102,1116 MOUNTAIN ROAD,"1116, RUE MOUNTAIN",?,MONCTON,NB,New Brunswick,E1C2T3,46.10551,-64.821736
BUDG,BUDGET RENT A CAR,4323,HIGH PARK,2401 DUNDAS STREET WEST,?,TORONTO,ON,Ontario,M6P1X2,43.65815,-79.45306
SHEL,SHELL CANADA,06CC,4722 Yonge St,4722 YONGE STREET,?,TORONTO,ON,Ontario,M2N5M4,43.75989,-79.41066
PALS,PREFERRED AB LIQUOR STORE,5300,ROSSLYN BEER/LIQUOR,13620 - 97 STREET,?,EDMONTON,AB,Alberta,T5E4E2,53.598044,-113.492374
PJCQ,JEAN COUTU,239,SAINT-NICHOLAS,"600, ROUTE 116 PLACE DU COMMERCE",?,SAINT-NICOLAS,QC,Quebec,G7A4X8,46.70978,-71.289296
HISB,STAYBRIDGE SUITES,SGSB,MISSISSAUGA,6791 HURONTARIO STREET,?,MISSISSAUGA,ON,Ontario,L5T2W1,43.64243,-79.70094
BUDG,BUDGET RENT A CAR,4221,KELOWNA  BC DTN,2702 HIGHWAY 97 NORTH,?,KELOWNA,BC,British Columbia,V1X4J7,49.90116,-119.40925
UNIS,AUTO PLUS AUTO PART PLUS,1945,Saskatoon Agri,3815 THATCHER AVENUE,?,SASKATOON,SK,Saskatchewan,S7R1A3,52.19489,-106.67771
SHEL,SHELL CANADA,1EGA,185 Scurfield Blvd,185 SCURFIELD BOULEVARD,?,WINNIPEG,MB,Manitoba,R3Y1A5,49.815447,-97.197763
2,BMO BANK OF MONTREAL,225,BMO BANK OF MONTREAL,6714 HWY#38,?,VERONA,ON,Ontario,K0H2W0,44.480662,-76.693974
MALO,VITROPLUS/ZIEBART,81,VP Jonquiere,3320 BOULEVARD ST-FRANGOIS,?,JONQUIHRE,QC,Quebec,G7X2W9,48.41187,-71.21857
GESC,GESCAN,XVA,Vancouver Express,?,?,?,BC,British Columbia,?,49.26831,-123.11001
TCPL,THE CHILDREN'S PLACE,3114,CHINOOK MALL,6455 MACLEOD TRAIL SW,SUITE,CALGARY,AB,Alberta,T2H0K9,50.99992,-114.0747
RXAL,REXALL DRUG STORES,6949,CHINGUACOUSY & WILLI,9825 CHINGUACOUSY ROAD,?,BRAMPTON,ON,Ontario,L6X0V1,43.682426,-79.803063
SHEL,SHELL CANADA,390G,Woodroffe Ave Nepean,2950 WOODROFFE AVENUE,?,NEPEAN,ON,Ontario,K2J4G3,45.291545,-75.727726
SBYA,SOBEYS INC,495,Rothesay,140-142 HAMPTON ROAD,?,ROTHESAY,NB,New Brunswick,E2E5X5,45.401347,-65.975339
RN04,BOTANIX,521,FRANCOIS LESPERANCE,1505 CH GASCON,?,TERREBONNE,QC,Quebec,J6X2Z6,45.71284,-73.65329
GLOB,GLOBAL PET FOODS,122,SCARBOROUGH,1595 ELLESMERE RD,?,SCARBOROUGH,ON,Ontario,M1P2Y3,43.77172,-79.25253
5,SAFEWAY,318,MARKET MALL,2325 PRESTON AVENUE,?,SASKATOON,SK,Saskatchewan,S7J2G1,52.10048,-106.62243
PPDM,PHARMA PLUS DRUGMARTS,1628,TRUNK SAULT STEMARIE,129 TRUNK ROAD,?,SAULT STE MARIE,ON,Ontario,P6A3S4,46.51163,-84.29692
CHBC,THE CHILDREN'S PLACE BC,3257,GRANDVIEW CORNERS,2428 160TH STREET,UNIT 30,SOUTH SURREY,BC,British Columbia,V3S0C8,49.04624,-122.7782
PJCQ,JEAN COUTU,76,DUVERNAY,"2955, BOULEVARD CONCORDE",?,LAVAL,QC,Quebec,H7E2B5,45.591917,-73.66938
BEAV,BEAVER,7D0A,159 Dundurn St,159 DUNDURN STREET,?,HAMILTON,ON,Ontario,L8P4K4,43.257789,-79.889695
VL01,VOYAGES EN LIBERTE,352,VEL NOUVEAU-MONDE,"422, rue Manseau",?,NOUVEAU-MONDE,QC,Quebec,J6E3E1,46.02531,-73.43961
BUDG,BUDGET RENT A CAR,4008,ST ALBERT AB DTN,22 MUIR DRIVE,?,ST ALBERT,AB,Alberta,T8N1G3,53.6385,-113.62475
NSLL,NOVA SCOTIA LIQUOR,2802,CLAYTON PARK WB,287 LACEWOOD DRIVE,?,HALIFAX,NS,Nova Scotia,B3M3Y7,44.66247,-63.65679
LCBO,LCBO,324,Hampton Park Pl,1385 CARLING AVENUE,HAMPTON PARK PLAZA,OTTAWA,ON,Ontario,K1Z7L6,45.385136,-75.740012
RN03,RENO - DEPOT,7305,RENO-DEPOT MARCHE CE,1011 RUE DU MARCHE-CENTRAL,?,MONTREAL,QC,Quebec,H4N3J6,45.53533,-73.65953
RN15,RO-NA HARDWARE,844,"11611, Alaska Hwy Fo",11611 ALASKA HWY.,?,FORT ST JOHN,BC,British Columbia,V1J4M7,56.24499,-120.87334
19,FOUNTAIN TIRE,137,FOUNTAIN TIRE F137,32740 LOGAN AVENUE,?,MISSION,AB,Alberta,V2V6K8,49.13369,-122.31866
PPDM,PHARMA PLUS DRUGMARTS,919,AGINCOURT MALL,3809 SHEPPARD AVE EAST,?,SCARBOROUGH,ON,Ontario,M1T3L5,43.78067,-79.2982
MLCC,MANITOBA LIQ CONTROL COMM,41,Southglen,730 ST. ANNES'S,SOUTHGLEN S/C,WINNIPEG,MB,Manitoba,R2N0A2,49.822924,-97.082948
19,FOUNTAIN TIRE,88,FOUNTAIN TIRE 088,234 ST. ALBERT ROAD,?,ST ALBERT,AB,Alberta,T8N5H6,53.62743,-113.61887
LCBO,LCBO,381,655 FAIRWAY RD SOUTH,655 FAIRWAY RD SOUTH,?,KITCHENER,ON,Ontario,N2C1X4,43.419356,-80.452424
BUDG,BUDGET RENT A CAR,529,DARTMOUTH NS  TRK,16 GARLAND AVENUE,?,DARTMOUTH,NS,Nova Scotia,B3B0A3,44.7077,-63.58321
IRIS,IRIS,647,IRIS,1192 HAMILTON STREET,?,VANCOUVER,BC,British Columbia,V6B2S2,49.2749,-123.1225
BOST,BOSTON PIZZA INTERN'AL,557,KITCHENER ALPINE,721 OTTAWA STREET,?,KITCHENER,ON,Ontario,N2E3H5,43.425038,-80.483669
SHOE,THE SHOE COMPANY,297,Dundas & Winston,3235 DUNDAS ST WEST,DUNDAS and WINSTON CHURCHILL,MISSISSAUGA,ON,Ontario,L6J4Z3,43.51827,-79.68666
5,SAFEWAY,801,THE MALL,6112 50 STREET,?,LEDUC,AB,Alberta,T9E6N7,53.27658,-113.54861
SHEL,SHELL CANADA,028E,71 Principale S,71 PRINCIPALE SUD,?,AMOS,QC,Quebec,J9T2J4,48.569803,-78.116105
2,BMO BANK OF MONTREAL,280,BMO BANK OF MONTREAL,208 KINGSWAY GARDEN MALL,?,EDMONTON,AB,Alberta,T5G3A6,53.560537,-113.506461
SHOE,THE SHOE COMPANY,341,BIG BEN CROSSINGS,100-5771 MARINE WAY.,BIG BEN CROSSINGS,BURNABY,BC,British Columbia,V5J0A6,49.20006,-122.97834
PJCQ,JEAN COUTU,188,800 STE-JULIE # 100,"800, MONTI SAINTE-JULIE",?,SAINTE-JULIE,QC,Quebec,J3E2C4,45.597089,-73.344662
BUDG,BUDGET RENT A CAR,4441,CHARLOTTETOWN  PE,250 MAPLE HILLS AVE,CHARLOTTETOWN AIRPORT,CHARLOTTETOWN,PE,Prince Edward Island,C1C1N2,46.28582,-63.1316
PJCQ,JEAN COUTU,308,GREENFIELD PARK,2984 BOUL TASCHEREAU,?,GREENFIELD PARK,QC,Quebec,J4V2G9,45.49875,-73.48666
2,BMO BANK OF MONTREAL,840,BMO BANK OF MONTREAL,2867 BOUL. ST-CHARLES,?,KIRKLAND,QC,Quebec,H9H3B5,45.44711,-73.853158
DEMF,DAOUST & MICHEL FORGET,D095,1389 Mont-Royal  Mtl,"1389, MONT-ROYAL EST",?,PLATEAU MONT-ROYAL,QC,Quebec,H2J1Y8,45.53063,-73.57693
CRST,CARSTAR AUTOMOTIVE CANADA,172,CARSTAR BOLTON,12050 ALBION VAUGHAN RD,?,BOLTON,ON,Ontario,L7E1S7,43.86945,-79.70776
MALO,VITROPLUS/ZIEBART,51,VP Gatineau,178 RUE DE VARENNES,?,GATINEAU,QC,Quebec,J8T8G3,45.49084,-75.703772
GLOB,GLOBAL PET FOODS,403,FREDERICTON,11-1111 REGENT ST,?,FREDERICTON,NB,New Brunswick,E3B3Z2,45.94096,-66.6568
GLOB,GLOBAL PET FOODS,164,ACTON,8 MAIN STREET,?,ACTON,ON,Ontario,L7J1W1,43.62996,-80.04201
GLOB,GLOBAL PET FOODS,54,70 Doncaster Ave,70 DONCASTER AVE,?,THORNHILL,ON,Ontario,L3T1L3,43.8042,-79.41569
CRST,CARSTAR AUTOMOTIVE CANADA,6005,CARSTAR SACKVILLE,2256 SACKVILLE DRIVE,SACKVILLE DRIVE & BEAVERBANK ROAD,SACKVILLE,NS,Nova Scotia,B4E3C6,44.80751,-63.75538
SHOE,THE SHOE COMPANY,273,Upper Canada Mall,17820 YONGE ST,RIOCAN CENTRE,NEWMARKET,ON,Ontario,L3Y8S1,44.06133,-79.48225
MAPP,MAPPINS,5178,WOODGROVE CENTRE,6631 ISLAND HWY. NORTH #294A,?,NANAIMO,BC,British Columbia,V9T4T7,49.23681,-124.04961
2,BMO BANK OF MONTREAL,244,BMO BANK OF MONTREAL,190 KING ST,?,THORNDALE,ON,Ontario,N0M2P0,43.103353,-81.14749
BUDG,BUDGET RENT A CAR,0WEL,MONCTON FBO,550 AV AVIATION,?,DIEPPE,NB,New Brunswick,E1A8S9,46.07972,-64.72179
SHEL,SHELL CANADA,3CC4,7166 HWY #1,7166 HWY # 1,?,COLDBROOK,NS,Nova Scotia,B4R1A2,45.067558,-64.567192
LCBO,LCBO,305,Coboconk,13 ALBERT STREET,?,COBOCONK,ON,Ontario,K0M1K0,44.658292,-78.79908
HBCR,HBC REWARDS,1543,BAY,DEVONSHIRE MALL,3030 HOWARD AVENUE,WINDSOR,ON,Ontario,N8X3Y8,42.27287,-83.00424
JENN,JENNY CRAIG CANADA,1901,LONDON CENTRE,395 WELLINGTON ROAD SOUTH,#22,LONDON,ON,Ontario,N6C5Z6,42.96054,-81.23091
UNIS,AUTO PLUS AUTO PART PLUS,O026,AVENUE MOTOR WORKS,555 OAKDALE RD,?,TORONTO,ON,Ontario,M3N1W7,43.751632,-79.52627
APUL,METRO,481,Woodview Place Burlington,3365 FAIRVIEW ST.,WOODVIEW PLACE,BURLINGTON,ON,Ontario,L7N3N9,43.355594,-79.78397
BUDG,BUDGET RENT A CAR,0X0U,WAVERLY AVE WINNIPEG,1700A WAVERLY STREET,?,WINNIPEG,MB,Manitoba,R3T5V7,49.81717,-97.17902
BOST,BOSTON PIZZA INTERN'AL,210,Rochdale Blvd Regina,4303 ROCHDALE BLVD,?,REGINA,SK,Saskatchewan,S4X4R3,50.49649,-104.642981
SHEL,SHELL CANADA,7D03,807 Red River Rd,?,?,?,ON,Ontario,?,48.444561,-89.247805
SHEL,SHELL CANADA,3F1C,FJ-PRINCE GEORGE,?,?,?,BC,British Columbia,?,53.87687,-122.73452
BOST,BOSTON PIZZA INTERN'AL,702,White Horse,2241 2ND AVENUE,?,WHITEHORSE,YT,Yukon,Y1A5W1,60.729668,-135.061909
HFHP,HAMPTON,XOKC,OAKVILLE MISSISSAUGA,2085 NORTH SHERIDAN WAY,?,MISSISSAUGA,ON,Ontario,L5K2T2,43.53107,-79.65153
CRAF,CRAFTSMAN COLLISION,20,BOUNDARY,3710 1ST AVE,?,BURNABY,BC,British Columbia,V5C3V9,49.2693,-123.02342
SHEL,SHELL CANADA,1DH0,357 Bath Rd,357 BATH ROAD,?,KINGSTON,ON,Ontario,K7M2X3,44.23967,-76.52889
UPZB,UNIGLASSPLUS/ZIEBART,3036,UPZB BELLEVILLE,200 NORTH FRONT ST,?,BELLEVILLE,ON,Ontario,K8P3C2,44.17937,-77.39204
PPDM,PHARMA PLUS DRUGMARTS,1705,WESTNEY & MAGILL,"475 WESTNEY ROAD NORTH, UNIT #17",?,AJAX,ON,Ontario,L1T3H4,43.86806,-79.03951
BEST,BEST WESTERN INTERNAT'NAL,C138,LEDUC AB,5207 50th Ave,?,Leduc,AB,Alberta,T9E6V3,53.26466,-113.55978
BUDG,BUDGET RENT A CAR,4909,HULL  QC PT,915 ST JOSEPH BLVD,?,GATINEAU,QC,Quebec,J8Z1S8,45.46449,-75.73954
SHEL,SHELL CANADA,142,888 Red River Rd,888 RED RIVER ROAD,?,THUNDER BAY,ON,Ontario,P7B1K2,48.447401,-89.24908
IRIS,IRIS,281,Iris,2151 BOUL. LAPINIERE,?,BROSSARD,QC,Quebec,J4W2T5,45.47305,-73.4698
2,BMO BANK OF MONTREAL,622,BMO BANK OF MONTREAL,2 QUEEN ST EAST,?,TORONTO,ON,Ontario,M5C3G7,43.652513,-79.379247
IRIS,IRIS,634,IRIS,4152 REDFORD STREET,?,PORT ALBERNI,BC,British Columbia,V9Y3R5,49.24506,-124.79577
IGAQ,IGA SUPERMARKETS,8649,RB ST-ROMUALD,1060 BOUL RIVE-SUD,?,SAINT-ROMUALD,QC,Quebec,G6W5M6,46.732272,-71.26919
5,SAFEWAY,258,MISSION,524 ELBOW DRIVE SW,?,CALGARY,AB,Alberta,T2S2H6,51.02974,-114.07317
BEST,BEST WESTERN INTERNAT'NAL,C154,STONY PLAIN AB,3101 43rd Ave,?,Stony Plain,AB,Alberta,T7Z1L1,53.53973,-113.97151
LCBO,LCBO,342,Grantham Plaza,400 SCOTT STREET,GRANTHAM PLAZA,ST. CATHARINES,ON,Ontario,L2M3W4,43.18981,-79.22634
CRST,CARSTAR AUTOMOTIVE CANADA,4016,CARSTAR GATINEAU,35 RUE AUDET,BOUL ST-JOSEPH N & CHEMIN FRE,GATINEAU,QC,Quebec,J8Z1Y1,45.47463,-75.74515
SASE,SASKENERGY & NETWORK MEM,6214,R. MILLER'S P&H,225 FOURTH AVE N,?,YORKTON,SK,Saskatchewan,S3N1A9,51.21858,-102.45857
2,BMO BANK OF MONTREAL,92,BMO BANK OF MONTREAL,11980 1RE AVENUE E.,?,SAINT-GEORGES-DE-BEAUCE,QC,Quebec,G5Y2E1,46.117589,-70.668157
SHEL,SHELL CANADA,000C,655 Notre Dame Av,655 NOTRE DAME,AND SHERBROOK,WINNIPEG,MB,Manitoba,R3E2L5,49.901342,-97.158125
RN01,RONA LE QUINCAILLIER,1130,RONA BEAULIEU DECOR,385 RUE 2E E,?,RIMOUSKI,QC,Quebec,G5L2G4,48.45656,-68.50067
CRST,CARSTAR AUTOMOTIVE CANADA,4054,CARSTAR VAL D'OR,351 RTE DE SAINT-PHILIPPE,?,VAL-D'OR,QC,Quebec,J9P4N7,48.09481,-77.90025
GLOB,GLOBAL PET FOODS,174,NORTH BAY,34 CHAMPLAIN ST,?,NORTH BAY,ON,Ontario,P1B7M4,46.33316,-79.47116
GMCL,GENERAL MOTORS,C277,JIM GAUTHIER CH,1400 MCPHILLIPS STREET,?,WINNIPEG,MB,Manitoba,R2V4G6,49.94077,-97.15894
GMCL,GENERAL MOTORS,A123,DUECK CH B CA G,400 S.E. MARINE DRIVE,?,VANCOUVER,BC,British Columbia,V5X4X2,49.21087,-123.09664
GMCL,GENERAL MOTORS,A145,CARIBOO CH B G,370 MACKENZIE AVENUE SOUTH,?,WILLIAMS LAKE,BC,British Columbia,V2G1C7,52.12362,-122.14152
GMCL,GENERAL MOTORS,D767,REAUME CH,500 FRONT ROAD,?,WINDSOR,ON,Ontario,N9J1Z9,42.24144,-83.10159
GMCL,GENERAL MOTORS,H550,MCCURDY CH P B G,174 TRENTON-FRANKFORD ROAD,P.O. BOX 425,TRENTON,ON,Ontario,K8V5R6,44.122407,-77.592019
GMCL,GENERAL MOTORS,F116,LOUNSBURY-87116,855 KING GEORGE HIGHWAY,P.O. BOX 356,MIRAMICHI,NB,New Brunswick,E1V1P9,47.012728,-65.557054
GMCL,GENERAL MOTORS,F095,HEMPHILL P B CH G,34 WATER STREET EAST,?,SUMMERSIDE,PE,Prince Edward Island,C1N4T8,46.39171,-63.77557
G423,GOODWRENCH SERVICE,H408,WILSON-NIBLETT MOT,10675 YONGE STREET,?,RICHMOND HILL,ON,Ontario,L4C3E1,43.88685,-79.44073
18,GOODYEAR CANADA - WEST,7212,MARKET TIRE LTD.,601 RAILWAY AVE E,?,ROSTHERN,SK,Saskatchewan,S0K3R0,52.66379,-106.32926
MLCC,MANITOBA LIQ CONTROL COMM,39,STONEWALL,19 - 333 MAIN STREET,?,STONEWALL,MB,Manitoba,R0C2Z0,50.13516,-97.32677
RN15,RO-NA HARDWARE,119,1700 Broughton Blvd,1700 BROUGHTON BLVD.,?,PORT MCNEILL,BC,British Columbia,V0N2R0,50.59046,-127.08543
SHEL,SHELL CANADA,3E4H,59 Main St. Blackville,?,?,?,NB,New Brunswick,?,46.765454,-65.810896
SHEL,SHELL CANADA,2299,Hafford QC,?,?,?,SK,Saskatchewan,?,52.729117,-107.358796
SHEL,SHELL CANADA,790,1 Riverside Dr,1 RIVERSIDE DRIVE,?,KAPUSKASING,ON,Ontario,P5N1A1,49.413085,-82.420023
NSLC,NOVA SCOTIA LIQUOR,2548,KINGSTON,490 MAIN STREET,?,KINGSTON,NS,Nova Scotia,B0P1R0,44.98519,-64.9521
SHEL,SHELL CANADA,2050,St Anselme QC,?,?,?,QC,Quebec,?,46.629025,-70.966502
SHEL,SHELL CANADA,1A8B,Cardigan ON,MAIN STREET,?,CARDIGAN,PE,Prince Edward Island,C0A1G0,46.232678,-62.618399
GLOB,GLOBAL PET FOODS,145,PORT PERRY,6-1888 SCUGOG ST,?,PORT PERRY,ON,Ontario,L9L1H6,44.1011,-78.93848
RN15,RO-NA HARDWARE,4605,PIERCEYS-RONA MASON,84 MASON LANE,?,ELMSADALE,NS,Nova Scotia,B2S3J3,44.97752,-63.50686
SHEL,SHELL CANADA,39C8,222 Rue Principale,?,?,?,QC,Quebec,?,46.377602,-70.926632
HOME,HOMECARE BUILDING CENTRES,44,ALLEN'S TIM-BR MART,413 QUEEN ST,?,PAISLEY,ON,Ontario,N0G2N0,44.30618,-81.2728
SHEL,SHELL CANADA,A642,1226 FRONT ST,1226 FRONT STREET,?,HEARST,ON,Ontario,P0L1N0,49.69024,-83.6728
SHEL,SHELL CANADA,A539,580 Boul Hebert,?,?,?,QC,Quebec,?,47.527674,-69.799462
33,CENTURY 21,3285,GRANITE REALTY GROUP,2 IGA ROAD,PO BOX 388,MINDEN,ON,Ontario,K0M2K0,44.92478,-78.72383
RN15,RO-NA HARDWARE,9986,RONA DURHAM,185 ELIZABETH ST,?,DURHAM,ON,Ontario,N0G1R0,44.1698,-80.81552
GMCL,GENERAL MOTORS,A139,HALEY MOTORS CH B G,1633 FIELD ROAD,P.O. BOX 1088,SECHELT,BC,British Columbia,V0N3A0,49.44068,-123.71014
GMCL,GENERAL MOTORS,H080,SCOTT DRUMMOND MOT,501 GRAND ROAD,?,CAMPBELLFORD,ON,Ontario,K0L1L0,44.29306,-77.80719
RN15,RO-NA HARDWARE,641,RONA 213 W OLD THOMP,213 WEST OLD N THOMPSON HWY,?,CLEARWATER,BC,British Columbia,V0E1N0,51.63876,-120.09047
LCBO,LCBO,582,Sauble Beach,611 MAIN STREET,SAUBLE BEACH,SAUBLE BEACH,ON,Ontario,N0H2G0,44.629845,-81.263454
MLCC,MANITOBA LIQ CONTROL COMM,34,Pine Falls,17 PINE STREET,PINE FALLS,PINE FALLS,MB,Manitoba,R0E1M0,50.56687,-96.219866
LCBO,LCBO,160,Cayuga,1 TALBOT ROAD WEST,?,CAYUGA,ON,Ontario,N0A1E0,42.950213,-79.855903
SHEL,SHELL CANADA,A61D,47 LA GRANDE ALLEE E,?,?,?,QC,Quebec,?,48.395855,-64.491933
2,BMO BANK OF MONTREAL,533,BMO BANK OF MONTREAL,761 QUEEN ST,?,KINCARDINE,ON,Ontario,N2Z2Y8,44.176563,-81.635523
PHAR,PHARMASAVE,575,TLC Pharmasave,157 WATER STREET,?,SHELBURNE,NS,Nova Scotia,B0T1W0,43.762866,-65.323452
SHEL,SHELL CANADA,A62H,514 RENE LEVESQUE,?,?,?,QC,Quebec,?,48.347627,-64.700194
TEST,AIR MILES REWARD PROGRAM,6,TEST6,5087 RUE FRONTENAC,?,LAC-MEGANTIC,QC,Quebec,G6B1H2,45.57688,-70.88428
FOOD,FOODLAND,9242,FOODLAND BERWICK,223 COMMERCIAL ST,?,BERWICK,NS,Nova Scotia,B0P1E0,45.04504,-64.73615
SBYA,SOBEYS INC,729,Amherst,142 SOUTH ALBION STREET,AMHERST CENTRE MALL,AMHERST,NS,Nova Scotia,B4H4H4,45.811951,-64.202521
NSLL,NOVA SCOTIA LIQUOR,2431,INGONISH,37773 CABOT TRAIL,?,INGONISH BEACH,NS,Nova Scotia,B0C1L0,46.64026,-60.40486
LCBO,LCBO,319,Whitney,POST STREET,?,WHITNEY,ON,Ontario,K0J2M0,45.492831,-78.238152
BUDG,BUDGET RENT A CAR,3892,BANFF AB CA,202 BEAR STREET,?,BANFF,AB,Alberta,T1L1B3,51.17683,-115.5723
2,BMO BANK OF MONTREAL,701,BMO BANK OF MONTREAL,122 MAIN ST,?,UNITY,SK,Saskatchewan,S0K4L0,52.436116,-109.14599
RN05,RONA L'EXPRESS,1298,"Ave Du Rocher,Norman","994, AV. DU ROCHER",?,NORMANDIN,QC,Quebec,G8M3W8,48.83606,-72.53182
NSLL,NOVA SCOTIA LIQUOR,2196,WINDSOR,11 COLE DRIVE,?,WINDSOR,NS,Nova Scotia,B0N2T0,44.98844,-64.11345
RN15,RO-NA HARDWARE,21,214 Main S Turner Va,601 - 1 AVENUE NE,?,BLACK DIAMOND,AB,Alberta,T0L0H0,50.68856,-114.22277
FOOD,FOODLAND,9231,REXTON,72 MAIN ST,?,REXTON,NB,New Brunswick,E4W2B2,46.653023,-64.877995
SHEL,SHELL CANADA,A5G2,1034 Ave Du Palais,?,?,?,QC,Quebec,?,46.30193,-70.873665
2,BMO BANK OF MONTREAL,104,BMO BANK OF MONTREAL,354 MAIN ST,?,YARMOUTH,NS,Nova Scotia,B5A4B2,43.836668,-66.12006
RN15,RO-NA HARDWARE,272,RONA 210 MAINT STREE,210 MAIN ST,?,LOON LAKE,SK,Saskatchewan,S0M1L0,54.02673,-109.16119
IRIS,IRIS,327,Iris,138 BOUL. PERRON OUEST,?,NEW RICHMOND,QC,Quebec,G0C2B0,48.16207,-65.86017
SHEL,SHELL CANADA,3F03,FLYINGJ - GRASSLAND,?,?,?,AB,Alberta,?,54.82007,-112.678375
SHEL,SHELL CANADA,21H1,Latulipe QC,?,?,?,QC,Quebec,?,47.427248,-79.03745
BOST,BOSTON PIZZA INTERN'AL,106,2 St Drumheller,680 2ND STREET SE,?,DRUMHELLER,AB,Alberta,T0J0Y0,51.457792,-112.705
LCBO,LCBO,454,Port Elgin,216 GODERICH STREET,ELGIN PLACE MALL,PORT ELGIN,ON,Ontario,N0H2C1,44.426239,-81.396886
IRIS,IRIS,632,IRIS,#310 - 6900 46TH STREET,?,OLDS,AB,Alberta,T4H0A2,51.79518,-114.14
NSLC,NOVA SCOTIA LIQUOR,2338,OXFORD,4930 MAIN STREET,?,OXFORD,NS,Nova Scotia,B0M1P0,45.73048,-63.87477
BW61,CANADA HEARING CENTRE LTD,169,LISTENUP! CANADA,?,?,?,ON,Ontario,?,999,999
RXAL,REXALL DRUG STORES,7514,KINGSWAY MEWS,10507 KINGSWAY AVENUE NW,?,EDMONTON,ON,Ontario,T5H4K1,53.557297,-113.500857
CV01,CLUB VOYAGES,192,RECOMP. A LA CARTE,300 RUE LEO-PARISEAU SUITE 162,?,MONTREAL,QC,Quebec,H2X4C2,45.511031,-73.576963
IGAQ,IGA SUPERMARKETS,6045,IGA MINI ST-HUBERT,5175 BOUL COUSINEAU,?,SAINT-HUBERT,QC,Quebec,J3Y3K7,45.50253,-73.4265
BW52,HAROLD SNOW SERVICE GROUP,3,ATLANTIC LAUNDRY,?,?,?,NS,Nova Scotia,?,999,999
KD31,CAN MED HEALTHCARE,1,CAN-MED HEALTHCARE,?,?,?,NS,Nova Scotia,?,999,999
LOWE,LOWES CANADA,2951,N. ETOBICOKE,48 LOWE'S PL,?,ETOBICOKE,ON,Ontario,M9P0A2,43.708798,-79.549752
KD40,SISLEY HONDA,1,SISLEY HONDA,?,?,?,ON,Ontario,?,999,999
MMER,MONERIS MERCHANT ISSUANCE,11LS,FES CANADA,1545 BRITANNIA RD E,SUITE # 14,MISSISSAUGA,ON,Ontario,L4W3C6,43.656369,-79.646483
RXAL,REXALL DRUG STORES,7511,REXALL MILLET,5010 50TH AVENUE,?,MILLET,ON,Ontario,T0C1Z0,53.096073,-113.472313
TIMQ,TIMBER MART QUEBEC,8234,CTRE RENO FABREVILLE,"3009, DAGENAIS OUEST",?,LAVAL,QC,Quebec,H7P1T4,45.969325,-71.374066
TIMW,TIM-BR MART WEST,1106,C. LUMBER (A) - TBM,54 - 6TH STREET NE,?,ALTONA,MB,Manitoba,R0G0B0,49.10514,-97.54954
TIMW,TIM-BR MART WEST,1890,SUMMERLAND BUILDERS,9310 JUBILEE RD,?,SUMMERLAND,BC,British Columbia,V0H1Z0,49.603268,-119.676394
HOME,HOMECARE BUILDING CENTRES,13,Madoc TIM-BR Mart,48 ST. LAWRENCE ST.,?,MADOC,ON,Ontario,K0K2K0,44.515388,-77.468746
TIMA,TIM-BR MART EAST,8171,BISHOP'S FALLS TBM,78 MAIN ST,?,BISHOPS FALLS,NL,Newfoundland & Labrador,A0H1C0,48.9934,-55.52446
TIMW,TIM-BR MART WEST,1440,LONE BUTTE SUPP-TBM,400 EXETER ROAD,?,100 MILE HOUSE,BC,British Columbia,V0K2E0,51.65062,-121.30717
TT01,TRANSAT TRAVEL,B671,TRANSAT TRAVEL,1680 RICHMOND ST,?,LONDON,ON,Ontario,N6G3Y9,43.02619,-81.27906
HFHP,HAMPTON,SGFS,SPRINGFIELD,?,?,?,YT,Yukon,?,999,999
NLCA,NLC LIQUOR STORES,49,Kelsey Drive,43 Kelsey Drive,?,St. John's,NL,Newfoundland & Labrador,A1B 5C8,47.5538,-52.78172
KD37,BEAUTE STAR BEDARD,?,?,?,?,?,?,Unknown,?,999,999
RN07,ACE,9900,ACE - BRETON (70507),4908 50TH AV,?,BRETON,AB,Alberta,T0C0P0,53.1105,-114.47026
MMER,MONERIS MERCHANT ISSUANCE,116K,CHEZ MADELINE,83A MAIN ST,?,STEPHENVILLE,NL,Newfoundland & Labrador,A2N1H9,48.5486248,-58.5797086
MMER,MONERIS MERCHANT ISSUANCE,110Z,CANADIAN TELESCOPES,3430 BRIGHTON AVE,UNIT 204B,BURNABY,BC,British Columbia,V5A3H4,49.252413,-122.918927
MMER,MONERIS MERCHANT ISSUANCE,10LQ,BITCHIN FOOD CO,2021 SEA TO SKY HWY,?,MOUNT CURRY,BC,British Columbia,V0N2K0,50.314057,-122.7171
MMER,MONERIS MERCHANT ISSUANCE,0K2N,DI ANGELO PIZZA AND,279A AMIRAULT RUE,?,DIEPPE,NB,New Brunswick,E1A1G1,46.0862323,-64.7344633
MMER,MONERIS MERCHANT ISSUANCE,10B5,SKINCARE STUDIO INC.,181 MUNDY POND ROAD,SUITE 2,ST. JOHN'S,NL,Newfoundland & Labrador,A1E1V4,47.549024,-52.744749
MMER,MONERIS MERCHANT ISSUANCE,0ZTS,CENTRAL SOCIAL HALL,525 ST ALBERTS TRAIL,?,EDMONTON,AB,Alberta,T8N4J8,53.650082,-113.628162
MMER,MONERIS MERCHANT ISSUANCE,0ZNH,G B LANCASTER CONSUL,790 QUEEN STREET EAST,?,TORONTO,ON,Ontario,M4M1H4,43.659503,-79.347154
MMER,MONERIS MERCHANT ISSUANCE,0ZJ7,MAJOR LEAGUE SALES I,1712 DUNDAS ST,?,LONDON,ON,Ontario,N5W3C9,43.001932,-81.18593
